Улица;Номер улицы;Строение;Литера;Район;Дата постройки;УК;Ожидаемый год ремонта;Ожидаемая статья ремонта;id;Широта;Долгота;Кол-во ремонтов;Возраст дома;Техническое состояние дома;age_norm;Индекс возраста дома;Адрес;Год ремонта по ГОСТ;Дельта
Байконурская ул.;5;1;А;Приморский;1977;"ООО ""Жилкомсервис №3 Приморского района""";2019;Капитальный ремонт лифтов с частичной заменой оборудования: модернизация лифтов;14786;30.350723;59.95935;8.0;41;0.03407130540748566;0.12937062937062938;0.8706293706293706;Байконурская ул., 5, 1, А;2021.0;2.0
г.Павловск, Толмачева ул.;3;0;А;Пушкинский;1962;"ООО ""Жилкомсервис №2 Пушкинского района""";2020;"Ремонт или замена системы электроснабжения; Ремонт конструкций и замена покрытий крыш";9635;30.20139600000001;59.828351;4.0;56;0.0600671629407924;0.18181818181818185;0.8181818181818181;г.Павловск, Толмачева ул., 3, А;2021.0;1.0
Непокоренных пр.;11;0;А;Калининский;1951;ООО «Жилкомсервис № 2 Калининского района»;2020;Ремонт конструкций и замена покрытий крыш;11577;30.351998;59.928982999999995;2.0;67;0.09864660886741036;0.2202797202797203;0.7797202797202797;Непокоренных пр., 11, А;2021.0;1.0
Шишмарёвского пер.;3;1;А;Приморский;1951;"ООО ""Жилкомсервис  №2 Приморского района""";2020;"Ремонт конструкций и замена покрытий крыш; Ремонт фасадов без утепления";2238;30.330779999999997;59.998162;4.0;67;0.05459947168207435;0.2202797202797203;0.7797202797202797;Шишмарёвского пер., 3, 1, А;2024.0;4.0
Кавалергардская ул.;22;0;А;Центральный;1908;"ООО ""Жилкомсервис №3 Центрального района""";2019;"Ремонт или замена системы горячего водоснабжения; Ремонт или замена системы холодного водоснабжения; Благоустройство придомовой территории; Ремонт конструкций и замена покрытий крыш; Ремонт или замена системы отопления; Ремонт и восстановление озеленения; Ремонт или восстановление внутридомовых инженерных систем; Капитальный ремонт лифтов (с заменой крупных узлов)";19413;30.318482;59.914953000000004;5.0;110;0.03255137400406126;0.3706293706293706;0.6293706293706294;Кавалергардская ул., 22, А;2021.0;2.0
Пр. Славы;40;1;А (пар.1-3);Фрунзенский;1999;"ТСЖ ""СВЕТ""";2020;"Ремонт конструкций и замена покрытий крыш; Ремонт и восстановление озеленения; Асфальтирование и замощение придомовой территории";1008;30.272012;60.045965;4.0;19;0.10177642122495706;0.05244755244755245;0.9475524475524476;Пр. Славы, 40, 1, А (пар.1-3);2024.0;4.0
Новоизмайловский пр.;30;2;А;Московский;1962;"ООО ""Жилкомсервис № 3 Московского района""";2020;Ремонт или замена системы холодного водоснабжения;6348;30.340320000000002;59.97115;3.0;56;0.0779517621999729;0.18181818181818185;0.8181818181818181;Новоизмайловский пр., 30, 2, А;2024.0;4.0
Маршала Жукова пр.;37;3;А;Красносельский;1986;"ООО ""Строитель""";2019;"Ремонт конструкций и замена покрытий крыш; Ремонт фасада (Герметизация стыков стеновых панелей)";3709;30.300165999999997;59.916143999999996;8.0;32;0.039176874664704084;0.0979020979020979;0.902097902097902;Маршала Жукова пр., 37, 3, А;2027.0;8.0
Энгельса пр.;151;2;А;Выборгский;1976;"Общество с ограниченной ответственностью  ""Жилкомсервис № 2 Выборгского района""";2020;"Ремонт или замена системы холодного водоснабжения; Ремонт фасадов без утепления; Ремонт конструкций и замена покрытий крыш; Ремонт или замена системы отопления";3603;30.28522700000001;59.943602;6.0;42;0.0464759250467016;0.13286713286713284;0.8671328671328671;Энгельса пр., 151, 2, А;2021.0;1.0
Шлиссельбургский пр.;18;1;А;Невский;1989;ЖСК №1292;2020;"Ремонт или замена системы электроснабжения; Ремонт и восстановление озеленения; Асфальтирование и замощение придомовой территории; Ремонт конструкций и замена покрытий крыш";8352;30.134983000000002;59.99926899999999;1.0;29;0.2261431262176263;0.08741258741258741;0.9125874125874126;Шлиссельбургский пр., 18, 1, А;2033.0;13.0
Шлиссельбургский пр.;16;0;А;Невский;1989;"ООО ""Жилкомсервис №2 Невского района""";2020;"Благоустройство придомовой территории; Ремонт и восстановление озеленения";536;30.071696999999997;59.834863;2.0;29;0.146938339446441;0.08741258741258741;0.9125874125874126;Шлиссельбургский пр., 16, А;2027.0;7.0
Средний пр.;35;0;Б;Василеостровский;1917;"ООО "" УК ""МИР""";2020;"Ремонт или замена системы электроснабжения; Расходы на изготовление проектно-сметной документации; Ремонт конструкций и замена покрытий крыш";5133;30.48300900000001;59.90515;2.0;101;0.08006565453316855;0.3391608391608392;0.6608391608391608;Средний пр., 35, Б;2021.0;1.0
Диагональная ул.;8;0;Е;Выборгский;1927;Общество с ограниченной ответственностью Жилкомсервис № 1 Выборгского района;2020;"Ремонт конструкций и замена покрытий крыш; Благоустройство придомовой территории";1552;30.315868;59.939094999999995;4.0;91;0.046111095097409766;0.3041958041958042;0.6958041958041958;Диагональная ул., 8, Е;2021.0;1.0
Дерптский пер.;12;0;А,Б;Адмиралтейский;1906;"ООО ""УК ""Петербургский дом""";2020;"Благоустройство придомовой территории; Капитальный ремонт лифтов с полной  заменой оборудования: реконструкция  лифтов; Ремонт или восстановление ОДС; Асфальтирование и замощение придомовой территории";15110;30.229908000000002;59.838349;2.0;112;0.07585249690188814;0.3776223776223776;0.6223776223776224;Дерптский пер., 12, А,Б;2021.0;1.0
Варшавская ул.;73;0;А;Московский;1964;ЖСК № 17;2020;"Ремонт или замена системы холодного водоснабжения; Ремонт или замена системы канализования и водоотведения; Ремонт или замена системы горячего водоснабжения";6306;30.359239000000002;59.997451;3.0;54;0.07939613389961858;0.17482517482517482;0.8251748251748252;Варшавская ул., 73, А;2027.0;7.0
Малоохтинский пр.;36;0;А;Красногвардейский;1937;"ООО ""Жилкомсервис № 1 Красногвардейского района""";2020;Ремонт конструкций и замена покрытий крыш;5002;30.302653999999997;59.968628;3.0;81;0.06438910846126512;0.2692307692307692;0.7307692307692308;Малоохтинский пр., 36, А;2021.0;1.0
4-я линия В.О.;59;0;Б;Василеостровский;1917;"ООО "" УК ""МИР""";2020;"Ремонт конструкций и замена покрытий крыш; Ремонт или замена системы отопления";7542;30.278184000000003;59.96026;3.0;101;0.057181432375894015;0.3391608391608392;0.6608391608391608;4-я линия В.О., 59, Б;2021.0;1.0
Авангардная ул.;2;0;А;Красносельский;1961;"ООО ""Жилищник""";2020;Капитальный ремонт лифтов с частичной заменой оборудования: модернизация лифтов;11090;30.431239;59.876978;5.0;57;0.04768027589842147;0.1853146853146853;0.8146853146853147;Авангардная ул., 2, А;2024.0;4.0
Новаторов Бульвар;69;0;А;Кировский;1987;"Общество с ограниченной ответственностью ""Жилкомсервис № 1 Кировского района""";2020;Ремонт конструкций и замена покрытий крыш;16681;30.006758;60.014113;2.0;31;0.14253417447510675;0.0944055944055944;0.9055944055944056;Новаторов Бульвар, 69, А;2021.0;1.0
Костромской пр.;37;0;Д;Выборгский;1958;Государственное унитарное производственное ремонтно-эксплуатационное предприятие «Прогресс»;2020;Ремонт или замена системы электроснабжения;11963;30.327986;60.023488;2.0;60;0.1041787871845258;0.1958041958041958;0.8041958041958042;Костромской пр., 37, Д;2033.0;13.0
Садовая ул.;47;0;А;Адмиралтейский;1798;"ООО ""Жилкомсервис №2 Адмиралтейского района""";2019;"Ремонт или замена системы холодного водоснабжения; Ремонт конструкций и замена покрытий крыш; Ремонт фасада (Герметизация стыков стеновых панелей); Ремонт или замена системы отопления; Ремонт или замена системы электроснабжения; Асфальтирование и замощение придомовой территории; Расходы на изготовление проектно-сметной документации";14301;30.428508;59.989292000000006;2.0;220;0.052414937767038906;0.7552447552447552;0.2447552447552448;Садовая ул., 47, А;2021.0;2.0
Энергетиков пр.;54;1;А;Красногвардейский;1967;ЖСК №279;2020;"Ремонт или замена системы электроснабжения; Капитальный ремонт лифтов с полной заменой оборудования: реконструкция лифтов; Капитальный ремонт лифтов с полной  заменой оборудования: реконструкция  лифтов";18768;30.30120800000001;59.96156600000001;2.0;51;0.11276632973867165;0.16433566433566432;0.8356643356643356;Энергетиков пр., 54, 1, А;2021.0;1.0
Вавиловых ул.;10;4;А;Калининский;1973;ООО «Жилкомсервис № 2 Калининского района»;2020;"Ремонт или замена системы электроснабжения; Капитальный ремонт лифтов с частичной заменой оборудования: модернизация лифтов; Ремонт или замена системы отопления";2027;30.315868;59.939094999999995;2.0;45;0.11974885854216985;0.14335664335664336;0.8566433566433567;Вавиловых ул., 10, 4, А;2024.0;4.0
Казанская ул.;39;0;А;Адмиралтейский;1827;"ООО ""Жилкомсервис №2 Адмиралтейского района""";2020;"Ремонт или замена системы холодного водоснабжения; Ремонт конструкций и замена покрытий крыш; Ремонт фасада (Герметизация стыков стеновых панелей); Ремонт или замена системы отопления; Ремонт или замена системы электроснабжения; Расходы на изготовление проектно-сметной документации";13754;30.299284999999998;59.93395600000001;1.0;191;0.0909024975067392;0.6538461538461539;0.3461538461538461;Казанская ул., 39, А;2024.0;4.0
г.Зеленогорск, Ленина пр.;24;0;А;Курортный;1960;"ООО ""ЖКС Курортного района""";2020;"Ремонт фасадов без утепления; Ремонт или замена системы горячего водоснабжения; Ремонт конструкций и замена покрытий крыш; Расходы на изготовление проектно-сметной документации; Установка общедомовых (и квартирных при замене сетей) приборов учета потребления: тепловой энергии на нужды отопления и горячего водоснабжения, потребления холодной воды, электрической энергии, газа";16306;30.350103000000004;59.92576800000001;7.0;58;0.03255287240332585;0.1888111888111888;0.8111888111888113;г.Зеленогорск, Ленина пр., 24, А;2021.0;1.0
Лиговский пр.;100-104;0;А;Центральный;1882;ТСЖ «Право»;2019;"Ремонт конструкций и замена покрытий крыш; Ремонт фасада (Герметизация стыков стеновых панелей); Капитальный ремонт лифтов (с заменой крупных узлов); Ремонт или замена системы отопления";15396;29.795205;59.988023;13.0;136;0.005646557942118682;0.4615384615384616;0.5384615384615384;Лиговский пр., 100-104, А;2021.0;2.0
Малый ВО пр.;6;0;А;Василеостровский;1894;"ООО "" УК ""МИР""";2020;"Ремонт конструкций и замена покрытий крыш; Ремонт фасадов без утепления";15869;30.263119;59.85063100000001;7.0;124;0.019784240746625614;0.4195804195804196;0.5804195804195804;Малый ВО пр., 6, А;2021.0;1.0
Шамшева ул.;10;0;Б;Петроградский;1898;"УК ООО ""Жилкомсервис №2 Петроградского района""";2020;"Ремонт или замена системы холодного водоснабжения; Благоустройство придомовой территории; Ремонт или замена системы канализования и водоотведения; Ремонт или замена системы отопления; Установка общедомовых (и квартирных при замене сетей) приборов учета потребления: тепловой энергии на нужды отопления и горячего водоснабжения, потребления холодной воды, электрической энергии, газа";5207;30.347776;59.937197;3.0;120;0.05198658726673417;0.4055944055944056;0.5944055944055944;Шамшева ул., 10, Б;2021.0;1.0
г.Ломоносов, Заводская ул.;7;0;А;Петродворцовый;1957;"ООО ""ЖКС г. Ломоносова""";2021;Ремонт конструкций и замена покрытий крыш;11857;30.315868;59.939094999999995;1.0;61;0.16073805700883814;0.1993006993006993;0.8006993006993007;г.Ломоносов, Заводская ул., 7, А;2027.0;6.0
Витебская ул.;27;0;А;Адмиралтейский;1912;"ООО ""Жилкомсервис №1 Адмиралтейского района""";2020;Благоустройство придомовой территории;19108;29.864114;59.871915;9.0;106;0.0153923730195088;0.3566433566433567;0.6433566433566433;Витебская ул., 27, А;2024.0;4.0
г.Зеленогорск, Новая ул.;6;0;А;Курортный;1958;"ООО ""ЖКС Курортного района""";2021;"Ремонт или замена системы холодного водоснабжения; Благоустройство придомовой территории; Ремонт фасада (Герметизация стыков стеновых панелей); Ремонт конструкций и замена покрытий крыш; Ремонт или замена системы электроснабжения";949;30.280214;59.965146999999995;4.0;60;0.057918778672343636;0.1958041958041958;0.8041958041958042;г.Зеленогорск, Новая ул., 6, А;2021.0;0.0
Михайлова ул.;1;0;А;Калининский;1950;ООО «Жилкомсервис № 3 Калининского района»;2020;"Ремонт или замена системы холодного водоснабжения; Ремонт конструкций и замена покрытий крыш; Ремонт или замена системы отопления; Ремонт или замена системы электроснабжения; Расходы на изготовление проектно-сметной документации";15351;30.315868;59.939094999999995;3.0;68;0.07057355213698234;0.22377622377622375;0.7762237762237763;Михайлова ул., 1, А;2033.0;13.0
Орджоникидзе ул.;59;0;А;Московский;1971;ЖСК № 570;2020;"Капитальный ремонт лифтов с частичной заменой оборудования: модернизация лифтов; Ремонт или замена системы горячего водоснабжения; Ремонт или замена системы холодного водоснабжения; Ремонт фасада (Герметизация стыков стеновых панелей); Ремонт конструкций и замена покрытий крыш";10341;30.320484999999998;59.929798999999996;5.0;47;0.05290731139436553;0.15034965034965034;0.8496503496503497;Орджоникидзе ул., 59, А;2027.0;7.0
Гражданский пр.;83;4;А;Калининский;1969;ЖСК-385;2020;Ремонт конструкций и замена покрытий крыш;19533;30.329046;60.017683;1.0;49;0.17817962229705722;0.15734265734265734;0.8426573426573427;Гражданский пр., 83, 4, А;2021.0;1.0
Зины Портновой ул.;4;0;А;Кировский;1961;"Общество с ограниченной ответственностью ""Жилкомсервис № 2 Кировского района""";2020;"АВКР; Ремонт или замена системы холодного водоснабжения; Ремонт конструкций и замена покрытий крыш; Ремонт или замена системы горячего водоснабжения";20693;30.256768;59.853857;1.0;57;0.16598329588712366;0.1853146853146853;0.8146853146853147;Зины Портновой ул., 4, А;2021.0;1.0
Ярослава Гашека ул.;7;1;А;Фрунзенский;1975;"ТСЖ ""Веста""";2019;"Ремонт конструкций и замена покрытий крыш; Ремонт фасада (Герметизация стыков стеновых панелей); Ремонт или замена системы горячего водоснабжения";21130;30.324438;59.888677;5.0;43;0.05544768498249905;0.13636363636363635;0.8636363636363636;Ярослава Гашека ул., 7, 1, А;2024.0;5.0
пос. Металлострой, Плановая ул.;12;0;А;Колпинский;1964;"ООО ""Гарант-Сервис""";2020;"Ремонт или замена системы холодного водоснабжения; Ремонт конструкций и замена покрытий крыш; Ремонт фасада (Герметизация стыков стеновых панелей); Ремонт или замена системы канализования и водоотведения; Ремонт или замена системы отопления; Ремонт или замена системы электроснабжения";8153;30.295422;60.028505;3.0;54;0.07939613389961858;0.17482517482517482;0.8251748251748252;пос. Металлострой, Плановая ул., 12, А;2033.0;13.0
Комсомольского канала наб.;28;0;А;Колпинский;1954;"ООО ""ЖКС №1 Колпинского района""";2020;"Ремонт или замена системы горячего водоснабжения; Ремонт или замена системы холодного водоснабжения; Ремонт фасада (Герметизация стыков стеновых панелей); Ремонт конструкций и замена покрытий крыш; Ремонт или замена системы отопления";20347;30.426028999999996;60.004114;8.0;64;0.025990663463178902;0.2097902097902098;0.7902097902097902;Комсомольского канала наб., 28, А;2021.0;1.0
Смолячкова ул.;12;0;А;Выборгский;1959;Общество с ограниченной ответственностью Жилкомсервис № 1 Выборгского района;2020;Ремонт или замена системы холодного водоснабжения;15423;30.308125;59.961872;3.0;59;0.07591393919852857;0.19230769230769232;0.8076923076923077;Смолячкова ул., 12, А;2021.0;1.0
Луначарского пр.;78;1;А;Калининский;1973;ООО «Жилкомсервис № 1 Калининского района»;2020;"Ремонт или замена системы электроснабжения; Ремонт или замена системы канализования и водоотведения; Капитальный ремонт лифтов (с заменой крупных узлов); Ремонт или восстановление ОДС";3254;29.929897999999998;59.861087;10.0;45;0.024316063896279338;0.14335664335664336;0.8566433566433567;Луначарского пр., 78, 1, А;2021.0;1.0
Народная ул.;86;0;Ж;Невский;1962;"ООО ""Жилкомсервис №1 Невского района""";2020;"Ремонт или замена системы холодного водоснабжения; Ремонт или замена системы отопления";4735;30.513623;59.83772;4.0;56;0.0600671629407924;0.18181818181818185;0.8181818181818181;Народная ул., 86, Ж;2021.0;1.0
Камышовая ул.;28;2;А;Приморский;1994;"ООО ""Жилкомсервис № 1 Приморского района""";2020;"Ремонт или замена системы горячего водоснабжения; Ремонт или замена системы холодного водоснабжения; Ремонт или замена системы отопления; Ремонт и восстановление озеленения; Асфальтирование и замощение придомовой территории; Расходы на изготовление проектно-сметной документации; Капитальный ремонт лифтов с полной  заменой оборудования: реконструкция  лифтов";5231;30.429828000000004;59.884609;4.0;24;0.0914080422166056;0.06993006993006994;0.93006993006993;Камышовая ул., 28, 2, А;2021.0;1.0
Шаумяна пр.;57;0;А;Красногвардейский;1960;"ООО ""Жилкомсервис №1 Красногвардейского района""";2020;"Ремонт фасадов без утепления; Ремонт или замена системы горячего водоснабжения; Ремонт или замена системы холодного водоснабжения; Ремонт фасада (Герметизация стыков стеновых панелей); Ремонт конструкций и замена покрытий крыш; Ремонт или замена системы электроснабжения";1633;30.281686999999998;59.966138;6.0;58;0.038842030474648064;0.1888111888111888;0.8111888111888113;Шаумяна пр., 57, А;2021.0;1.0
Английский пр.;2;0;А;Адмиралтейский;1894;"ООО ""Жилкомсервис №1 Адмиралтейского района""";2020;"Ремонт или замена системы электроснабжения; Ремонт фасада (Герметизация стыков стеновых панелей)";1843;29.898466;59.874779000000004;5.0;124;0.030202732360810683;0.4195804195804196;0.5804195804195804;Английский пр., 2, А;2018.0;-2.0
Солидарности пр.;3;5;А;Невский;1986;"ООО ""Жилкомсервис № 1 Невского района""";2020;"Ремонт или замена системы холодного водоснабжения; Капитальный ремонт лифтов (с заменой крупных узлов); Ремонт конструкций и замена покрытий крыш; Ремонт или замена системы горячего водоснабжения";15907;30.342665000000004;59.928537;4.0;32;0.07969536167321101;0.0979020979020979;0.902097902097902;Солидарности пр., 3, 5, А;2024.0;4.0
Добровольцев ул.;18;0;А;Красносельский;1970;"ООО ""Жилищник""";2020;"Ремонт фасадов без утепления; Ремонт конструкций и замена покрытий крыш; Благоустройство придомовой территории; Ремонт фасада (Герметизация стыков стеновых панелей); Расходы на изготовление проектно-сметной документации; Капитальный ремонт лифтов с полной  заменой оборудования: реконструкция  лифтов; Капитальный ремонт лифтов (с заменой крупных узлов); Ремонт или восстановление ОДС";14439;30.286026;59.92076700000001;7.0;48;0.03637084332932237;0.15384615384615385;0.8461538461538461;Добровольцев ул., 18, А;2024.0;4.0
Б. Пушкарская ул.;19;0;Б;Петроградский;1898;"УК ООО ""ЖКС №1 Петроградского района""";2020;"Благоустройство придомовой территории; Ремонт или замена системы отопления";15690;30.260154999999997;59.946964;4.0;120;0.03929502299420143;0.4055944055944056;0.5944055944055944;Б. Пушкарская ул., 19, Б;2024.0;4.0
Тамбасова ул.;19;6;А;Красносельский;1966;"ООО ""ЖКСервис""";2020;"Ремонт конструкций и замена покрытий крыш; Благоустройство придомовой территории; Ремонт фасада (Герметизация стыков стеновых панелей)";9961;30.27477;59.909617000000004;9.0;52;0.025483775093973336;0.16783216783216784;0.8321678321678322;Тамбасова ул., 19, 6, А;2021.0;1.0
Кораблестроителей ул.;37;0;А;Василеостровский;1977;"ЗАО ""Сити Сервис""";2020;"Ремонт или замена системы холодного водоснабжения; Ремонт конструкций и замена покрытий крыш; Ремонт или замена системы канализования и водоотведения; Ремонт или замена системы электроснабжения; Асфальтирование и замощение придомовой территории";3421;30.292656;59.921209;5.0;41;0.0568425751591933;0.12937062937062938;0.8706293706293706;Кораблестроителей ул., 37, А;2021.0;1.0
Ленина ул.;52;0;А;Петроградский;1912;"УК ООО ""Жилкомсервис №2 Петроградского района""";2020;"Ремонт или замена системы холодного водоснабжения; Ремонт или замена системы канализования и водоотведения; Ремонт конструкций и замена покрытий крыш; Ремонт или замена системы отопления";2956;30.315868;59.939094999999995;7.0;106;0.0221082747983684;0.3566433566433567;0.6433566433566433;Ленина ул., 52, А;2021.0;1.0
11-я Красноармейская ул.;14;0;А;Адмиралтейский;1909;"ООО ""Жилкомсервис №1 Адмиралтейского района""";2020;"Ремонт или замена системы горячего водоснабжения; Ремонт или замена системы холодного водоснабжения; Ремонт конструкций и замена покрытий крыш; Ремонт или замена системы канализования и водоотведения; Ремонт или замена системы отопления; Капитальный ремонт лифтов с полной  заменой оборудования: реконструкция  лифтов; Установка общедомовых (и квартирных при замене сетей) приборов учета потребления: тепловой энергии на нужды отопления и горячего водоснабжения, потребления холодной воды, электрической энергии, газа";9040;30.508035999999997;59.97759300000001;5.0;109;0.03273524032449443;0.3671328671328672;0.6328671328671329;11-я Красноармейская ул., 14, А;2021.0;1.0
пос. Понтонный, Александра Товпеко ул.;11;0;А;Колпинский;1963;"ООО ""Гарант-Сервис""";2020;"Ремонт конструкций и замена покрытий крыш; Ремонт или замена системы отопления";4875;30.242915999999997;59.859185;1.0;55;0.16880099373593396;0.17832167832167833;0.8216783216783217;пос. Понтонный, Александра Товпеко ул., 11, А;2024.0;4.0
Красного Курсанта ул.;25;0;А;Петроградский;1917;"УК ООО ""Жилкомсервис №2 Петроградского района""";2019;"Капитальный ремонт лифтов с полной заменой оборудования: реконструкция лифтов; Благоустройство придомовой территории; Ремонт конструкций и замена покрытий крыш; Ремонт или замена системы отопления";12043;30.419246;59.976022;3.0;101;0.057181432375894015;0.3391608391608392;0.6608391608391608;Красного Курсанта ул., 25, А;2024.0;5.0
Культуры пр.;6;1;А;Выборгский;1992;"Открытое акционерное общество ""Сити Сервис""";2020;Ремонт конструкций и замена покрытий крыш;2180;30.315868;59.939094999999995;2.0;26;0.1543703789439501;0.07692307692307693;0.9230769230769232;Культуры пр., 6, 1, А;2033.0;13.0
Седова ул.;87;4;В;Невский;1960;"ООО ""Жилкомсервис № 2 Невского района""";2020;"Ремонт или замена системы электроснабжения; Ремонт конструкций и замена покрытий крыш";11567;29.527013;60.205433;2.0;58;0.10592638323541828;0.1888111888111888;0.8111888111888113;Седова ул., 87, 4, В;2021.0;1.0
Ленинский пр.;125;4;А;Кировский;1962;"Общество с ограниченной ответственностью ""Жилкомсервис № 1 Кировского района""";2020;"Ремонт или замена системы холодного водоснабжения; Ремонт фасадов без утепления; Ремонт конструкций и замена покрытий крыш; Ремонт или замена системы горячего водоснабжения";5807;30.360747999999997;60.014338;4.0;56;0.0600671629407924;0.18181818181818185;0.8181818181818181;Ленинский пр., 125, 4, А;2024.0;4.0
Турку ул.;8;1;А;Фрунзенский;1969;"ООО ""Жилкомсервис № 2 Фрунзенского района""";2020;"Капитальный ремонт лифтов с частичной заменой оборудования: модернизация лифтов; Ремонт или замена системы горячего водоснабжения; Ремонт или замена системы холодного водоснабжения; Ремонт конструкций и замена покрытий крыш; Ремонт фасада (Герметизация стыков стеновых панелей); Ремонт или замена системы отопления; Капитальный ремонт лифтов с полной  заменой оборудования: реконструкция  лифтов; Капитальный ремонт лифтов (с заменой крупных узлов)";16137;30.077581;59.744519;8.0;49;0.03067340065806746;0.15734265734265734;0.8426573426573427;Турку ул., 8, 1, А;2027.0;7.0
Лазо ул.;9;0;А;Красногвардейский;1956;"ООО ""Жилкомсервис  №2 Красногвардейского района""";2020;"Ремонт или замена системы холодного водоснабжения; Ремонт конструкций и замена покрытий крыш";13971;30.39828;60.014984999999996;3.0;62;0.07401476460298675;0.2027972027972028;0.7972027972027972;Лазо ул., 9, А;2024.0;4.0
Дыбенко ул.;15;2;Б;Невский;1973;ЖСК-619;2020;"Ремонт или замена системы холодного водоснабжения; Капитальный ремонт лифтов с полной  заменой оборудования: реконструкция  лифтов";21480;;;1.0;45;0.1853589048612196;0.14335664335664336;0.8566433566433567;Дыбенко ул., 15, 2, Б;2021.0;1.0
Садовая ул.;84;0;А,Б;Адмиралтейский;1898;"ООО ""Жилкомсервис №1 Адмиралтейского района""";2020;"Ремонт или замена системы холодного водоснабжения; Ремонт конструкций и замена покрытий крыш; Ремонт фасада (Герметизация стыков стеновых панелей); Ремонт или замена системы отопления; Ремонт или замена системы электроснабжения; Асфальтирование и замощение придомовой территории; Расходы на изготовление проектно-сметной документации";15378;30.440851000000002;59.871839;7.0;120;0.020257676585402288;0.4055944055944056;0.5944055944055944;Садовая ул., 84, А,Б;2024.0;4.0
Большая Зеленина ул.;39;0;Б;Петроградский;1875;"ООО ""ЖКС №2 Петроградского района""";2019;"Ремонт или замена системы холодного водоснабжения; Ремонт конструкций и замена покрытий крыш; Ремонт или замена системы канализования и водоотведения; Ремонт или замена системы отопления; Ремонт или замена системы электроснабжения; Расходы на изготовление проектно-сметной документации; Капитальный ремонт лифтов с полной  заменой оборудования: реконструкция  лифтов; Капитальный ремонт лифтов (с заменой крупных узлов)";19874;30.242907000000002;59.841111;3.0;143;0.04707083729862893;0.48601398601398604;0.513986013986014;Большая Зеленина ул., 39, Б;2021.0;2.0
Диагональная ул.;10;0;Д;Выборгский;1926;Общество с ограниченной ответственностью Жилкомсервис № 1 Выборгского раойна;2020;"Ремонт конструкций и замена покрытий крыш; Благоустройство придомовой территории; Ремонт и восстановление озеленения; Ремонт или замена системы отопления";14281;30.28894600000001;59.94250200000001;5.0;92;0.03627722757828264;0.3076923076923077;0.6923076923076923;Диагональная ул., 10, Д;2024.0;4.0
Обуховской Обороны пр.;219;0;А;Невский;1917;"ООО ""Жилкомсервис №2 Невского района""";2020;"Ремонт конструкций и замена покрытий крыш; Ремонт фасада (Герметизация стыков стеновых панелей); Ремонт и восстановление озеленения; Асфальтирование и замощение придомовой территории";8665;30.275893;59.983180000000004;2.0;101;0.08006565453316855;0.3391608391608392;0.6608391608391608;Обуховской Обороны пр., 219, А;2024.0;4.0
Санкт-Петербургское ш.;67;2;А;Петродворцовый;1966;"ООО ""ЖКС поселка Стрельна""";2020;"Ремонт фасадов без утепления; Ремонт или замена системы холодного водоснабжения; Ремонт конструкций и замена покрытий крыш; Ремонт или замена системы отопления; Расходы на изготовление проектно-сметной документации; Установка общедомовых (и квартирных при замене сетей) приборов учета потребления: тепловой энергии на нужды отопления и горячего водоснабжения, потребления холодной воды, электрической энергии, газа";19560;30.330906;60.050582999999996;4.0;52;0.062438784283876274;0.16783216783216784;0.8321678321678322;Санкт-Петербургское ш., 67, 2, А;2021.0;1.0
Загородный пр.;12;0;А;Центральный;1880;"ООО "" Жилкомсервис №2 Центрального района """;2020;"Капитальный ремонт лифтов с полной заменой оборудования: реконструкция лифтов; Ремонт или замена системы холодного водоснабжения; Ремонт конструкций и замена покрытий крыш; Ремонт или замена системы отопления; Ремонт или замена системы электроснабжения; Ремонт или восстановление внутридомовых инженерных систем; Расходы на изготовление проектно-сметной документации; Капитальный ремонт лифтов с полной  заменой оборудования: реконструкция  лифтов";12884;30.315868;59.939094999999995;10.0;138;0.01016902876859683;0.4685314685314685;0.5314685314685315;Загородный пр., 12, А;2021.0;1.0
Ленсовета ул.;9/24;0;А;Московский;1961;"ООО ""Жилкомсервис № 2 Московского района""";2020;Ремонт конструкций и замена покрытий крыш;11673;30.475903000000002;59.909996;1.0;57;0.16598329588712366;0.1853146853146853;0.8146853146853147;Ленсовета ул., 9/24, А;2024.0;4.0
Володи Ермака ул.;19;0;А;Адмиралтейский;1872;"ООО ""Жилкомсервис №1 Адмиралтейского района""";2020;"Ремонт или замена системы электроснабжения; Благоустройство придомовой территории; Расходы на изготовление проектно-сметной документации";16065;30.365247999999998;59.939424;1.0;146;0.10449616785359067;0.4965034965034965;0.5034965034965035;Володи Ермака ул., 19, А;2021.0;1.0
пос.Шушары, Пушкинская ул.;3;0;А;Пушкинский;1959;"ООО ""Жилкомсервис № 1 Пушкинского района""";2020;"Ремонт или замена системы холодного водоснабжения; Ремонт конструкций и замена покрытий крыш; Ремонт или замена системы отопления";18271;30.57426;59.734589;1.0;59;0.1632991124929868;0.19230769230769232;0.8076923076923077;пос.Шушары, Пушкинская ул., 3, А;2027.0;7.0
г.Сестрорецк, Воскова ул.;1;0;А;Курортный;1979;"ООО ""ЖКС Курортного района""";2020;"Ремонт или замена системы горячего водоснабжения; Ремонт конструкций и замена покрытий крыш; АВКР; Расходы на изготовление проектно-сметной документации; Установка общедомовых (и квартирных при замене сетей) приборов учета потребления: тепловой энергии на нужды отопления и горячего водоснабжения, потребления холодной воды, электрической энергии, газа";823;30.336296;59.83750799999999;10.0;39;0.026604109910797973;0.12237762237762237;0.8776223776223776;г.Сестрорецк, Воскова ул., 1, А;2024.0;4.0
Каменноостровский пр.;64;6;И;Петроградский;1933;"УК ООО ""Жилкомсервис №2 Петроградского района""";2020;"Ремонт конструкций и замена покрытий крыш; Ремонт фасада (Герметизация стыков стеновых панелей); Ремонт или восстановление внутридомовых инженерных систем; Ремонт или замена системы отопления";8374;30.395737;59.876666;3.0;85;0.06275941568910964;0.28321678321678323;0.7167832167832168;Каменноостровский пр., 64, 6, И;2024.0;4.0
Тореза пр.;94;2;А;Выборгский;1963;"ООО ""СТРОИТЕЛЬНЫЕ СИСТЕМЫ""";2020;"Ремонт или замена системы холодного водоснабжения; Капитальный ремонт лифтов с полной  заменой оборудования: реконструкция  лифтов; Ремонт или замена системы электроснабжения; Ремонт или замена системы отопления";1503;30.347183;59.984520999999994;2.0;55;0.10871025112531277;0.17832167832167833;0.8216783216783217;Тореза пр., 94, 2, А;2024.0;4.0
Науки пр.;45;2;А;Калининский;1972;ООО «Жилкомсервис № 2 Калининского района»;2020;"Капитальный ремонт лифтов с полной заменой оборудования: реконструкция лифтов; Ремонт или замена системы горячего водоснабжения; Ремонт или замена системы холодного водоснабжения; Ремонт конструкций и замена покрытий крыш; Ремонт фасада (Герметизация стыков стеновых панелей); Ремонт или замена системы отопления; Ремонт или замена системы электроснабжения";12071;30.32848;59.977056999999995;13.0;46;0.016379529923030448;0.14685314685314685;0.8531468531468531;Науки пр., 45, 2, А;2024.0;4.0
Школьная ул.;28;0;А;Приморский;1950;"ООО ""Жилкомсервис №2 Приморского района""";2020;Ремонт фасадов без утепления;15401;30.27998;59.898931999999995;3.0;68;0.07057355213698234;0.22377622377622375;0.7762237762237763;Школьная ул., 28, А;2027.0;7.0
Антонова-Овсеенко ул.;9;2;М;Невский;1977;"ООО ""Жилкомсервис №1 Невского района""";2020;"Ремонт конструкций и замена покрытий крыш; Ремонт и восстановление озеленения; Асфальтирование и замощение придомовой территории";7290;30.095654999999997;59.835225;1.0;41;0.19347019366943916;0.12937062937062938;0.8706293706293706;Антонова-Овсеенко ул., 9, 2, М;2024.0;4.0
Аврова ул.;11б;0;А;Петродворцовый;1959;"ООО ""ЖКС г. Петродворца""";2020;"Ремонт конструкций и замена покрытий крыш; Расходы на изготовление проектно-сметной документации; Ремонт или замена системы отопления";13833;30.483269;59.950281000000004;4.0;59;0.05843690453963695;0.19230769230769232;0.8076923076923077;Аврова ул., 11б, А;2024.0;4.0
Гданьская ул.;11;0;А;Выборгский;1961;ЖСК им. ХХ Партсъезда;2020;"Ремонт или замена системы холодного водоснабжения; Ремонт и восстановление озеленения; Ремонт конструкций и замена покрытий крыш";18925;30.470369;59.930597;1.0;57;0.16598329588712366;0.1853146853146853;0.8146853146853147;Гданьская ул., 11, А;2021.0;1.0
Кронштадтская ул.;5;0;А;Кронштадский;1960;"ООО""Жилкомсервис Кронштадтского района""";2020;"Ремонт конструкций и замена покрытий крыш; Благоустройство придомовой территории";13475;30.357182;60.001901000000004;2.0;58;0.10592638323541828;0.1888111888111888;0.8111888111888113;Кронштадтская ул., 5, А;2024.0;4.0
Энергетиков пр.;30;5;А;Красногвардейский;1947;"ООО ""Жилкомсервис  №1 Красногвардейского района""";2020;Ремонт конструкций и замена покрытий крыш;9701;30.089546999999996;59.746781999999996;5.0;71;0.042181172158755394;0.2342657342657343;0.7657342657342657;Энергетиков пр., 30, 5, А;2021.0;1.0
Казанская ул.;10;0;А;Красногвардейский;1961;"ООО ""Жилкомсервис  № 1 Красногвардейского района""";2020;"Ремонт или замена системы холодного водоснабжения; Ремонт конструкций и замена покрытий крыш; Ремонт или замена системы горячего водоснабжения";9163;30.267853000000002;59.972483;1.0;57;0.16598329588712366;0.1853146853146853;0.8146853146853147;Казанская ул., 10, А;2024.0;4.0
Брестский бульвар;19 / 17;0;А;Красносельский;1980;"ООО ""Строитель""";2020;"Ремонт или замена системы горячего водоснабжения; Ремонт или замена системы холодного водоснабжения; Благоустройство придомовой территории; Ремонт конструкций и замена покрытий крыш; Ремонт или замена системы канализования и водоотведения; Ремонт фасада (Герметизация стыков стеновых панелей); Капитальный ремонт лифтов с полной  заменой оборудования: реконструкция  лифтов";18701;30.24977;59.837146;4.0;38;0.07323670436296766;0.11888111888111888;0.8811188811188811;Брестский бульвар, 19 / 17, А;2027.0;7.0
Шахматова ул.;16;0;А;Петродворцовый;1988;"ООО ""ЖКС г. Петродворца""";2020;"Ремонт конструкций и замена покрытий крыш; Ремонт и восстановление озеленения; Капитальный ремонт лифтов (с заменой крупных узлов); Асфальтирование и замощение придомовой территории";20528;30.42628;59.830431000000004;3.0;30;0.10564734032795044;0.09090909090909093;0.9090909090909092;Шахматова ул., 16, А;2024.0;4.0
Советский бульв.;23;0;А;Колпинский;1917;"ООО ""ЖКС №1 Колпинского района""";2020;"Ремонт или замена системы холодного водоснабжения; Расходы на изготовление проектно-сметной документации; Установка общедомовых (и квартирных при замене сетей) приборов учета потребления: тепловой энергии на нужды отопления и горячего водоснабжения, потребления холодной воды, электрической энергии, газа; Ремонт или замена системы горячего водоснабжения";2621;30.374636;59.933099;1.0;101;0.12583409884771765;0.3391608391608392;0.6608391608391608;Советский бульв., 23, А;2033.0;13.0
Пр. Славы;2;4;А;Фрунзенский;1965;"ООО ""Жилкомсервис № 1 Фрунзенского района""";2020;"Ремонт конструкций и замена покрытий крыш; Асфальтирование и замощение придомовой территории; Расходы на изготовление проектно-сметной документации; Капитальный ремонт лифтов с полной  заменой оборудования: реконструкция  лифтов; Установка общедомовых (и квартирных при замене сетей) приборов учета потребления: тепловой энергии на нужды отопления и горячего водоснабжения, потребления холодной воды, электрической энергии, газа";15586;30.377951;59.928704;3.0;53;0.08014632119207933;0.17132867132867133;0.8286713286713286;Пр. Славы, 2, 4, А;2024.0;4.0
Боровая ул.;12;0;Б;Центральный;1867;"ООО "" Жилкомсервис №2 Центрального района """;2020;"Благоустройство придомовой территории; Ремонт или замена системы канализования и водоотведения; Ремонт или восстановление внутридомовых инженерных систем; Ремонт или замена системы отопления";17990;30.277824;59.999506999999994;2.0;151;0.06464673508985064;0.513986013986014;0.4860139860139861;Боровая ул., 12, Б;2027.0;7.0
г.Зеленогорск, Ломаная ул.;2;0;А;Курортный;1917;"ООО ""ЖКС Курортного района""";2022;АВКР;18346;30.326082;59.928176;2.0;101;0.08006565453316855;0.3391608391608392;0.6608391608391608;г.Зеленогорск, Ломаная ул., 2, А;2027.0;5.0
Фарфоровский пост;78;0;А;Фрунзенский;1956;"ООО ""Жилкомсервис № 2 Фрунзенского района""";2020;"Благоустройство придомовой территории; Ремонт и восстановление озеленения";5419;30.084453000000003;59.73660699999999;3.0;62;0.07401476460298675;0.2027972027972028;0.7972027972027972;Фарфоровский пост, 78, А;2024.0;4.0
Камышовая ул.;30;1;А;Приморский;1994;"ООО ""Жилкомсервис №1 Приморского района""";2020;"Ремонт конструкций и замена покрытий крыш; Благоустройство придомовой территории; Ремонт и восстановление озеленения";12062;30.324519;60.05850600000001;4.0;24;0.0914080422166056;0.06993006993006994;0.93006993006993;Камышовая ул., 30, 1, А;2033.0;13.0
Замшина ул.;40;0;А;Калининский;1961;ООО «Жилкомсервис № 3 Калининского района»;2020;"Ремонт или замена системы горячего водоснабжения; Ремонт или замена системы холодного водоснабжения; Ремонт конструкций и замена покрытий крыш; Ремонт или замена системы канализования и водоотведения; Ремонт или замена системы электроснабжения";548;30.432101;60.009899;5.0;57;0.04768027589842147;0.1853146853146853;0.8146853146853147;Замшина ул., 40, А;2021.0;1.0
Лабутина ул.;13;0;А,Б;Адмиралтейский;1917;"ООО ""Жилкомсервис №1 Адмиралтейского района""";2020;Благоустройство придомовой территории;17254;30.342719;59.95995300000001;5.0;101;0.03429721021861947;0.3391608391608392;0.6608391608391608;Лабутина ул., 13, А,Б;2021.0;1.0
8-я линия В.О.;15;0;В;Василеостровский;1917;"ООО "" УК ВОЗРОЖДЕНИЕ""";2020;"Ремонт конструкций и замена покрытий крыш; Ремонт фасадов без утепления";12730;30.254262;59.836486;2.0;101;0.08006565453316855;0.3391608391608392;0.6608391608391608;8-я линия В.О., 15, В;2021.0;1.0
Ленсовета ул.;61;0;А;Московский;1962;"ООО ""Жилкомсервис № 1 Московского района""";2020;"Ремонт или замена системы холодного водоснабжения; Ремонт конструкций и замена покрытий крыш";6010;30.314781;59.929416;3.0;56;0.0779517621999729;0.18181818181818185;0.8181818181818181;Ленсовета ул., 61, А;2033.0;13.0
Планерная ул.;69;1;А;Приморский;1993;"ООО ""Жилкомсервис №4 Приморского района""";2020;"Ремонт или замена системы горячего водоснабжения; Ремонт или замена системы холодного водоснабжения; Ремонт конструкций и замена покрытий крыш; Ремонт и восстановление озеленения; Асфальтирование и замощение придомовой территории";9248;30.428929999999998;59.971605000000004;5.0;25;0.07281803541206452;0.07342657342657342;0.9265734265734266;Планерная ул., 69, 1, А;2021.0;1.0
г.Павловск, Госпитальная ул.;23;0;А;Пушкинский;1964;"ООО ""Жилкомсервис № 2 Пушкинского района""";2020;"Ремонт конструкций и замена покрытий крыш; Благоустройство придомовой территории; Ремонт фасадов без утепления";20412;30.437545;59.866932999999996;5.0;54;0.04910701123443585;0.17482517482517482;0.8251748251748252;г.Павловск, Госпитальная ул., 23, А;2024.0;4.0
2-й Муринский пр.;6;0;А;Выборгский;1964;"Жилищно-строительный кооператив ""Приборостроитель""";2020;"Ремонт или замена системы электроснабжения; Капитальный ремонт лифтов с полной заменой оборудования: реконструкция лифтов; Ремонт или замена системы отопления";14075;30.483206;59.880825;2.0;54;0.10968525656480133;0.17482517482517482;0.8251748251748252;2-й Муринский пр., 6, А;2024.0;4.0
Гражданский пр.;114;5;А;Калининский;1970;ООО «Жилкомсервис № 1 Калининского района»;2020;"Ремонт или замена системы горячего водоснабжения; Ремонт или замена системы холодного водоснабжения; Ремонт конструкций и замена покрытий крыш; Ремонт или замена системы канализования и водоотведения; Ремонт или замена системы отопления";1372;30.323612;59.932067;10.0;48;0.02332300403152637;0.15384615384615385;0.8461538461538461;Гражданский пр., 114, 5, А;2021.0;1.0
Омская ул.;29;0;А;Приморский;1962;"ООО ""Жилкомсервис  №2 Приморского района""";2020;"Ремонт или замена системы холодного водоснабжения; Ремонт фасада (Герметизация стыков стеновых панелей); Ремонт или замена системы отопления";14741;30.262023;59.895881;2.0;56;0.1077594276319404;0.18181818181818185;0.8181818181818181;Омская ул., 29, А;2021.0;1.0
Московский пр.;208;0;А;Московский;1937;"ООО ""Жилкомсервис № 1 Московского района""";2019;"Ремонт фасадов без утепления; Ремонт или замена системы холодного водоснабжения; Благоустройство придомовой территории; Ремонт конструкций и замена покрытий крыш; Ремонт или замена системы электроснабжения";3839;30.39501;59.868464;2.0;81;0.08967588931366335;0.2692307692307692;0.7307692307692308;Московский пр., 208, А;2024.0;5.0
Итальянская ул.;10/5;0;А;Центральный;1833;"ТСЖ ""Итальянская""";2020;"Ремонт конструкций и замена покрытий крыш; Расходы на изготовление проектно-сметной документации";5248;30.332738;59.93282900000001;6.0;185;0.018216712162364108;0.6328671328671329;0.3671328671328671;Итальянская ул., 10/5, А;2033.0;13.0
Гаванская ул;12;0;А;Василеостровский;1911;"ООО ""Жилкомсервис №1 Василеостровского района""";2020;"Ремонт конструкций и замена покрытий крыш; Благоустройство придомовой территории; Ремонт фасадов без утепления";11246;30.396653999999998;60.014134999999996;6.0;107;0.026741442050341204;0.36013986013986016;0.6398601398601398;Гаванская ул, 12, А;2021.0;1.0
Лебедева ул.;3;0;А;Кронштадский;1973;"ООО ""Жилкомсервис Кронштадтского района""";2020;"Благоустройство придомовой территории; Ремонт и восстановление озеленения";24;30.351809999999997;59.95612;1.0;45;0.1853589048612196;0.14335664335664336;0.8566433566433567;Лебедева ул., 3, А;2021.0;1.0
Гончарная ул.;10;0;А;Центральный;1887;"Общество с ограниченной ответственностью ""Жилкомсервис №3 Центрального района""";2019;Благоустройство придомовой территории;16750;30.370531;59.873103;1.0;131;0.11043660648267316;0.4440559440559441;0.5559440559440559;Гончарная ул., 10, А;2021.0;2.0
Фарфоровский пост;54;0;А;Фрунзенский;1910;"ООО ""Жилкомсервис № 2 Фрунзенского района""";2020;"Благоустройство придомовой территории; Ремонт и восстановление озеленения";12967;30.391902;60.035346;7.0;108;0.02182332024868021;0.3636363636363637;0.6363636363636364;Фарфоровский пост, 54, А;2033.0;13.0
г.Пушкин, Саперная ул.;42;3;А;Пушкинский;1994;"ООО "" Жилкомсервис №1 Пушкинского района""";2020;Благоустройство придомовой территории;11283;30.416156;59.94321899999999;1.0;24;0.2457269566854084;0.06993006993006994;0.93006993006993;г.Пушкин, Саперная ул., 42, 3, А;2027.0;7.0
Средний пр.;70;0;А;Василеостровский;1895;"ООО ""Жилкомсервис № 1 Василеостровского района""";2020;"Ремонт или замена системы электроснабжения; Ремонт фасадов без утепления; Ремонт конструкций и замена покрытий крыш";17462;30.384059000000004;59.83295500000001;6.0;123;0.02438223456740048;0.4160839160839161;0.5839160839160841;Средний пр., 70, А;2021.0;1.0
Аврова ул.;13б;0;А;Петродворцовый;1960;"ООО ""ЖКС г. Петродворца""";2020;"Ремонт конструкций и замена покрытий крыш; Благоустройство придомовой территории; Ремонт или замена системы отопления; Расходы на изготовление проектно-сметной документации; Установка общедомовых (и квартирных при замене сетей) приборов учета потребления: тепловой энергии на нужды отопления и горячего водоснабжения, потребления холодной воды, электрической энергии, газа";20084;30.292557000000002;59.953326000000004;6.0;58;0.038842030474648064;0.1888111888111888;0.8111888111888113;Аврова ул., 13б, А;2027.0;7.0
19-я линия В.О.;14/54;0;А;Василеостровский;1911;"ООО "" УК ВОЗРОЖДЕНИЕ""";2019;"Ремонт конструкций и замена покрытий крыш; Ремонт фасадов без утепления";2193;30.31002;59.85146700000001;3.0;107;0.05540094916004431;0.36013986013986016;0.6398601398601398;19-я линия В.О., 14/54, А;2021.0;2.0
Железноводская ул.;62;0;А;Василеостровский;1966;ЖСК-149;2020;"Ремонт или замена системы канализования и водоотведения; Ремонт или замена системы электроснабжения; Ремонт и восстановление озеленения; Асфальтирование и замощение придомовой территории; Капитальный ремонт лифтов с полной  заменой оборудования: реконструкция  лифтов";12187;30.378785999999998;59.844267;5.0;52;0.050120447887241945;0.16783216783216784;0.8321678321678322;Железноводская ул., 62, А;2027.0;7.0
Чебышевская ул.;14;2;А;Петродворцовый;1988;"ООО ""ЖКС г. Петродворца""";2020;"Ремонт или замена системы холодного водоснабжения; Благоустройство придомовой территории; Ремонт или замена системы горячего водоснабжения; Ремонт или замена системы отопления";14900;30.29311400000001;59.916514;2.0;30;0.14468686513591048;0.09090909090909093;0.9090909090909092;Чебышевская ул., 14, 2, А;2024.0;4.0
Гаванская ул;42;0;А;Василеостровский;1957;"ООО ""ЖКС №1 Василеостровского района""";2020;"Ремонт конструкций и замена покрытий крыш; Благоустройство придомовой территории";7320;30.145278;59.826967;1.0;61;0.16073805700883814;0.1993006993006993;0.8006993006993007;Гаванская ул, 42, А;2024.0;4.0
Кубинская ул.;56;0;А;Московский;1961;"ООО ""Жилкомсервис №3 Московского района""";2020;Ремонт и восстановление озеленения;13292;30.367764;59.836138;1.0;57;0.16598329588712366;0.1853146853146853;0.8146853146853147;Кубинская ул., 56, А;2021.0;1.0
Рубинштейна ул.;15-17;0;А;Центральный;1910;ТСЖ «Толстовский Дом»;2019;"АВКР; Расходы на изготовление проектно-сметной документации; Ремонт или замена системы электроснабжения; Ремонт или замена системы отопления";14144;30.246454999999997;59.999674;7.0;108;0.02182332024868021;0.3636363636363637;0.6363636363636364;Рубинштейна ул., 15-17, А;2024.0;5.0
Обуховской Обороны пр.;291;3;А;Невский;1971;"ТСЖ ""Мурзинка""";2020;"Ремонт или замена системы холодного водоснабжения; Капитальный ремонт лифтов (с заменой крупных узлов); Ремонт конструкций и замена покрытий крыш; Ремонт или замена системы отопления";10250;30.427653999999997;60.025965;2.0;47;0.11728585688466067;0.15034965034965034;0.8496503496503497;Обуховской Обороны пр., 291, 3, А;2024.0;4.0
Московское ш.;28;0;А;Московский;1960;"ООО ""Жилкомсервис № 1 Московского района""";2020;Ремонт конструкций и замена покрытий крыш;7361;30.152760999999998;59.82715699999999;1.0;58;0.1646251919010922;0.1888111888111888;0.8111888111888113;Московское ш., 28, А;2021.0;1.0
Новаторов Бульвар;33;0;А;Кировский;1964;"Общество с ограниченной ответственностью ""Жилкомсервис № 1 Кировского района""";2020;"Ремонт или замена системы горячего водоснабжения; Ремонт или замена системы холодного водоснабжения; Ремонт конструкций и замена покрытий крыш; Ремонт или замена системы отопления; Расходы на изготовление проектно-сметной документации; Капитальный ремонт лифтов с полной  заменой оборудования: реконструкция  лифтов";18846;30.344632;59.91175;7.0;54;0.03396244990184449;0.17482517482517482;0.8251748251748252;Новаторов Бульвар, 33, А;2033.0;13.0
Поликарпова а.;8;1;А;Приморский;1975;"ООО ""Жилкомсервис №3 Приморского района""";2019;"Ремонт или замена системы холодного водоснабжения; Ремонт фасада (Герметизация стыков стеновых панелей); Ремонт или замена системы канализования и водоотведения; Ремонт или замена системы горячего водоснабжения";2943;30.315868;59.939094999999995;8.0;43;0.03314137862302284;0.13636363636363635;0.8636363636363636;Поликарпова а., 8, 1, А;2021.0;2.0
Тюшина ул.;10;0;А;Центральный;1905;"ООО "" Жилкомсервис №2 Центрального района """;2020;"Ремонт конструкций и замена покрытий крыш; Асфальтирование и замощение придомовой территории; Ремонт или замена системы отопления";15908;30.357002;60.041373;2.0;113;0.0754985468838067;0.3811188811188811;0.6188811188811191;Тюшина ул., 10, А;2021.0;1.0
Кавалергардская ул.;4;0;А;Центральный;1916;"ООО ""Жилкомсервис №3 Центрального района""";2020;"Ремонт или замена системы электроснабжения; Ремонт или замена системы канализования и водоотведения; Ремонт конструкций и замена покрытий крыш";1251;30.354360999999997;59.920185;1.0;102;0.12522016426546295;0.34265734265734266;0.6573426573426573;Кавалергардская ул., 4, А;2033.0;13.0
Камышовая ул.;54;1;А;Приморский;1996;"ООО ""Жилкомсервис  №1 Приморского района""";2020;"Ремонт конструкций и замена покрытий крыш; Благоустройство придомовой территории; Ремонт и восстановление озеленения";8489;30.327196;59.912874;2.0;22;0.1662787365191024;0.06293706293706294;0.9370629370629372;Камышовая ул., 54, 1, А;2024.0;4.0
Ж. Егоровой ул.;5;1;А;Выборгский;1980;Общество с ограниченной ответственностью Жилкомсервис № 1 Выборгского района;2019;"Ремонт или замена системы горячего водоснабжения; Ремонт или замена системы холодного водоснабжения; Ремонт конструкций и замена покрытий крыш; Ремонт или замена системы канализования и водоотведения; Ремонт и восстановление озеленения; Асфальтирование и замощение придомовой территории; Капитальный ремонт лифтов с полной  заменой оборудования: реконструкция  лифтов; Ремонт или восстановление ОДС";11364;30.430601;60.03385400000001;5.0;38;0.0591187146198181;0.11888111888111888;0.8811188811188811;Ж. Егоровой ул., 5, 1, А;2024.0;5.0
Здоровцева ул.;25;0;А;Красносельский;1970;"ООО ""Комфорт""";2020;"Ремонт конструкций и замена покрытий крыш; Благоустройство придомовой территории; Ремонт фасада (Герметизация стыков стеновых панелей); Расходы на изготовление проектно-сметной документации";20806;30.223072;59.829735;5.0;48;0.052318202471073;0.15384615384615385;0.8461538461538461;Здоровцева ул., 25, А;2024.0;4.0
Кубинская ул.;22;0;А;Московский;1961;"ООО ""Жилкомсервис № 3 Московского района""";2020;"Ремонт или замена системы холодного водоснабжения; Ремонт конструкций и замена покрытий крыш; Ремонт или замена системы канализования и водоотведения; Ремонт или замена системы отопления; Ремонт или замена системы электроснабжения";15266;30.357846000000002;59.911421;2.0;57;0.10683178589277256;0.1853146853146853;0.8146853146853147;Кубинская ул., 22, А;2024.0;4.0
Ковенский пер.;26;0;А;Центральный;1898;"ООО ""Жилкомсервис №3 Центрального района""";2020;"Капитальный ремонт лифтов с полной заменой оборудования: реконструкция лифтов; Расходы на изготовление проектно-сметной документации; Ремонт или замена системы отопления";8231;30.322946999999996;59.912102000000004;3.0;120;0.05198658726673417;0.4055944055944056;0.5944055944055944;Ковенский пер., 26, А;2024.0;4.0
Спирина ул.;16;2;А;Красносельский;1969;"ООО ""Городской центр коммунального сервиса""";2020;"Ремонт или замена системы холодного водоснабжения; Ремонт конструкций и замена покрытий крыш; Ремонт фасада (Герметизация стыков стеновых панелей); Ремонт или замена системы канализования и водоотведения; Ремонт или замена системы отопления; Ремонт или замена системы электроснабжения; Ремонт или восстановление внутридомовых инженерных систем";4050;30.353803999999997;59.911714;4.0;49;0.06438910846126512;0.15734265734265734;0.8426573426573427;Спирина ул., 16, 2, А;2021.0;1.0
Красного Текстильщика ул.;9-11;0;А;Центральный;1916;"ООО ""Жилкомсервис №3 Центрального района""";2019;"Капитальный ремонт лифтов с полной заменой оборудования: реконструкция лифтов; Ремонт или замена системы холодного водоснабжения; Благоустройство придомовой территории; Ремонт конструкций и замена покрытий крыш; Ремонт или замена системы канализования и водоотведения; Ремонт фасада (Герметизация стыков стеновых панелей); Ремонт или замена системы отопления; Ремонт или замена системы электроснабжения; Ремонт или восстановление внутридомовых инженерных систем; Расходы на изготовление проектно-сметной документации";3957;30.305331;59.918183;12.0;102;0.009558211805823093;0.34265734265734266;0.6573426573426573;Красного Текстильщика ул., 9-11, А;2024.0;5.0
Тореза пр.;74;0;А;Выборгский;1964;"Жилищно-эксплуатационный  кооператив ""Россия""";2020;"Ремонт или замена системы холодного водоснабжения; Капитальный ремонт лифтов с полной  заменой оборудования: реконструкция  лифтов; Ремонт конструкций и замена покрытий крыш; Ремонт или замена системы отопления";10299;30.241658;60.024329;5.0;54;0.04910701123443585;0.17482517482517482;0.8251748251748252;Тореза пр., 74, А;2021.0;1.0
4-я Красноармейская ул.;4;0;А;Адмиралтейский;1892;"ООО ""Жилкомсервис №1 Адмиралтейского района""";2020;"Ремонт или замена системы горячего водоснабжения; Ремонт или замена системы холодного водоснабжения; Благоустройство придомовой территории; Ремонт или замена системы канализования и водоотведения; Ремонт или замена системы отопления; Ремонт и восстановление озеленения";14102;30.379728999999998;59.940144999999994;2.0;126;0.07126688758084831;0.42657342657342656;0.5734265734265734;4-я Красноармейская ул., 4, А;2021.0;1.0
Десантников ул.;12;1;А;Красносельский;1991;"ООО ""Строитель""";2020;"Ремонт или замена системы холодного водоснабжения; Капитальный ремонт лифтов с полной  заменой оборудования: реконструкция  лифтов; Ремонт конструкций и замена покрытий крыш; Ремонт или замена системы горячего водоснабжения";16973;30.323764;59.943751;2.0;27;0.15177059165213586;0.08041958041958043;0.9195804195804196;Десантников ул., 12, 1, А;2027.0;7.0
Захарьевская ул.;16;0;А;Центральный;1910;"ООО ""Жилкомсервис №3 Центрального района""";2019;"Ремонт или замена системы горячего водоснабжения; Ремонт конструкций и замена покрытий крыш; Благоустройство придомовой территории; Ремонт фасада (Герметизация стыков стеновых панелей); Ремонт или замена системы канализования и водоотведения; Ремонт или замена системы отопления; Ремонт или восстановление внутридомовых инженерных систем";10888;30.323871999999998;59.855213;12.0;108;0.00901772242383028;0.3636363636363637;0.6363636363636364;Захарьевская ул., 16, А;2024.0;5.0
Зайцева ул.;25;0;А;Кировский;1959;"Общество с ограниченной ответственностью ""Жилкомсервис № 2 Кировского района""";2020;"Ремонт или замена системы холодного водоснабжения; Ремонт конструкций и замена покрытий крыш";9012;30.242727000000002;60.004811;5.0;59;0.04678554810037586;0.19230769230769232;0.8076923076923077;Зайцева ул., 25, А;2018.0;-2.0
Трамвайный пр.;25;1;А;Кировский;1962;"Общество с ограниченной ответственностью ""Жилкомсервис № 1 Кировского района""";2020;Ремонт конструкций и замена покрытий крыш;9284;30.214601000000002;59.957863;5.0;56;0.0481440967680054;0.18181818181818185;0.8181818181818181;Трамвайный пр., 25, 1, А;2027.0;7.0
Московский пр.;157а;0;А;Московский;1939;"ООО ""Жилкомсервис № 3 Московского района""";2020;"Ремонт конструкций и замена покрытий крыш; Благоустройство придомовой территории; Ремонт фасада (Герметизация стыков стеновых панелей); Ремонт или замена системы отопления; Расходы на изготовление проектно-сметной документации";10911;30.315868;59.939094999999995;3.0;79;0.06524685957782829;0.26223776223776224;0.7377622377622377;Московский пр., 157а, А;2027.0;7.0
Дачный пр.;16;7;А;Кировский;1969;Жилищно-строительный кооператив № 306;2020;"Ремонт или замена системы холодного водоснабжения; Капитальный ремонт лифтов с полной  заменой оборудования: реконструкция  лифтов; Ремонт конструкций и замена покрытий крыш; Ремонт или замена системы горячего водоснабжения";2541;30.315868;59.939094999999995;7.0;49;0.0359414800023171;0.15734265734265734;0.8426573426573427;Дачный пр., 16, 7, А;2021.0;1.0
Малый П.С. пр.;32;0;А;Петроградский;1907;"УК ООО ""Жилкомсервис №2 Петроградского района""";2020;"Ремонт или замена системы холодного водоснабжения; Благоустройство придомовой территории; Ремонт конструкций и замена покрытий крыш; Ремонт или замена системы канализования и водоотведения; Ремонт фасада (Герметизация стыков стеновых панелей); Ремонт или замена системы отопления; АВКР; Ремонт и восстановление озеленения; Ремонт или восстановление внутридомовых инженерных систем";9932;30.315868;59.939094999999995;3.0;111;0.05429039864936205;0.3741258741258741;0.6258741258741258;Малый П.С. пр., 32, А;2021.0;1.0
Большая Подьяческая ул.;22;0;Б;Адмиралтейский;1728;"ООО ""Жилкомсервис №2 Адмиралтейского района""";2020;Асфальтирование и замощение придомовой территории;4896;30.315868;59.939094999999995;5.0;290;0.016579394293938985;1.0;0.0;Большая Подьяческая ул., 22, Б;2021.0;1.0
Благодатная ул.;59;0;А;Московский;1961;"ООО ""Жилкомсервис № 2 Московского района""";2020;"Ремонт конструкций и замена покрытий крыш; Ремонт фасада (Герметизация стыков стеновых панелей)";16423;30.315868;59.939094999999995;1.0;57;0.16598329588712366;0.1853146853146853;0.8146853146853147;Благодатная ул., 59, А;2024.0;4.0
г.Павловск, Динамо, Пионерская ул.;15;0;А;Пушкинский;1985;"ООО ""Жилкомсервис № 2 Пушкинского района""";2020;"Ремонт или замена системы электроснабжения; Ремонт конструкций и замена покрытий крыш; Ремонт или замена системы горячего водоснабжения";15232;30.295854;59.863080000000004;4.0;33;0.0785098028166817;0.1013986013986014;0.8986013986013986;г.Павловск, Динамо, Пионерская ул., 15, А;2024.0;4.0
г.Пушкин, Алексея Толстого бульв.;21;0;А;Пушкинский;1969;"ООО ""ПолиСтрой""";2020;"Ремонт или замена системы холодного водоснабжения; Ремонт конструкций и замена покрытий крыш; Ремонт или замена системы канализования и водоотведения; Капитальный ремонт лифтов (с заменой крупных узлов); Ремонт или восстановление ОДС";18693;30.250983;60.016757;5.0;49;0.051745718035066;0.15734265734265734;0.8426573426573427;г.Пушкин, Алексея Толстого бульв., 21, А;2021.0;1.0
Кондратьевский пр.;63;0;А;Калининский;1959;ООО «Жилкомсервис № 3 Калининского района»;2020;"Ремонт конструкций и замена покрытий крыш; Благоустройство придомовой территории";17608;30.280681;59.95797099999999;1.0;59;0.1632991124929868;0.19230769230769232;0.8076923076923077;Кондратьевский пр., 63, А;2021.0;1.0
Дыбенко ул.;24;1;Ю;Невский;1970;ЖСК 516;2020;"Ремонт или замена системы холодного водоснабжения; Капитальный ремонт лифтов с полной  заменой оборудования: реконструкция  лифтов";13328;30.315868;59.939094999999995;4.0;48;0.06507608978447353;0.15384615384615385;0.8461538461538461;Дыбенко ул., 24, 1, Ю;2024.0;4.0
Моховая ул.;10;0;А;Центральный;1854;ООО «Жилкомсервис № 1 Центрального района»;2020;"Капитальный ремонт лифтов с полной заменой оборудования: реконструкция лифтов; Благоустройство придомовой территории; Расходы на изготовление проектно-сметной документации; Капитальный ремонт лифтов с полной  заменой оборудования: реконструкция  лифтов; Капитальный ремонт лифтов (с заменой крупных узлов)";15221;30.38423;60.050516;0.0;164;0.2083143005344188;0.5594405594405595;0.4405594405594405;Моховая ул., 10, А;2024.0;4.0
Черной речки наб.;6;0;А;Приморский;1957;"ООО ""Жилкомсервис №2 Приморского района""";2020;"Ремонт конструкций и замена покрытий крыш; Ремонт фасадов без утепления";10577;30.323790999999996;59.957476;4.0;61;0.05741248234597749;0.1993006993006993;0.8006993006993007;Черной речки наб., 6, А;2021.0;1.0
2-ая Комсомольская ул.;15;1;А;Красносельский;1954;"ООО ""ЖКСервис""";2020;"Ремонт фасадов без утепления; Ремонт конструкций и замена покрытий крыш; Ремонт или замена системы канализования и водоотведения; Ремонт или замена системы электроснабжения; Асфальтирование и замощение придомовой территории";6729;30.370790999999997;59.927797;5.0;64;0.04472161224273315;0.2097902097902098;0.7902097902097902;2-ая Комсомольская ул., 15, 1, А;2021.0;1.0
Тележная ул.;23;0;В;Центральный;1887;"ООО ""Жилкомсервис №3 Центрального района""";2020;Ремонт или замена системы отопления;7129;30.301315000000002;59.846359;2.0;131;0.0698006596231389;0.4440559440559441;0.5559440559440559;Тележная ул., 23, В;2018.0;-2.0
Краснопутиловская ул.;57;0;А;Кировский;1960;"ГУПРЭП ""Строитель""";2020;"Ремонт или замена системы холодного водоснабжения; Благоустройство придомовой территории; Ремонт или замена системы горячего водоснабжения";18391;30.20856400000001;59.83724599999999;2.0;58;0.10592638323541828;0.1888111888111888;0.8111888111888113;Краснопутиловская ул., 57, А;2024.0;4.0
Гражданский пр.;45;1;А;Калининский;1959;ООО «Жилкомсервис № 2 Калининского района»;2020;Ремонт конструкций и замена покрытий крыш;4532;30.443096;59.86833299999999;4.0;59;0.05843690453963695;0.19230769230769232;0.8076923076923077;Гражданский пр., 45, 1, А;2021.0;1.0
Ушинского ул.;25;1;А;Калининский;1971;"ООО ""Жилкомсервис № 1 Калининского района""";2020;"Капитальный ремонт лифтов с частичной заменой оборудования: модернизация лифтов; Ремонт конструкций и замена покрытий крыш; Благоустройство придомовой территории; Ремонт или замена системы электроснабжения; Расходы на изготовление проектно-сметной документации; Капитальный ремонт лифтов (с заменой крупных узлов)";3956;30.582901;59.744369999999996;8.0;47;0.03144779623093382;0.15034965034965034;0.8496503496503497;Ушинского ул., 25, 1, А;2024.0;4.0
Науки пр.;14;6;А;Калининский;1966;ООО УК «Уютный дом»;2020;"Ремонт или замена системы горячего водоснабжения; Ремонт или замена системы холодного водоснабжения; Ремонт конструкций и замена покрытий крыш; Ремонт фасада (Герметизация стыков стеновых панелей); Ремонт или замена системы канализования и водоотведения; Ремонт или замена системы отопления; Ремонт или восстановление внутридомовых инженерных систем";21279;30.243741999999997;59.838257999999996;3.0;52;0.08091628887882774;0.16783216783216784;0.8321678321678322;Науки пр., 14, 6, А;2021.0;1.0
6-я Советская ул.;8;0;А;Центральный;1908;"ООО ""Жилкомсервис №3 Центрального района""";2019;"Ремонт или замена системы горячего водоснабжения; Ремонт или замена системы холодного водоснабжения; Ремонт или замена системы отопления; Ремонт или замена системы электроснабжения; Расходы на изготовление проектно-сметной документации";10075;30.210469;59.827614000000004;11.0;110;0.010540069954065824;0.3706293706293706;0.6293706293706294;6-я Советская ул., 8, А;2021.0;2.0
Гаккелевская ул.;27;2;А;Приморский;1993;ЖСК №12;2020;"Ремонт или замена системы электроснабжения; Ремонт конструкций и замена покрытий крыш";2492;30.317960999999997;59.957701;1.0;25;0.2413965744280528;0.07342657342657342;0.9265734265734266;Гаккелевская ул., 27, 2, А;2018.0;-2.0
Павловская ул.;54;0;А;Колпинский;1965;"ООО "" ЖКС № 1 Колпинского района""";2020;"Ремонт или замена системы электроснабжения; Благоустройство придомовой территории; Ремонт конструкций и замена покрытий крыш";19647;30.216029;59.943394999999995;4.0;53;0.061822810134477525;0.17132867132867133;0.8286713286713286;Павловская ул., 54, А;2033.0;13.0
г.Сестрорецк, Токарева ул.;3;0;А;Курортный;1983;"ООО ""ЖКС Курортного района""";2020;"Ремонт или замена системы горячего водоснабжения; Ремонт конструкций и замена покрытий крыш; Благоустройство придомовой территории; Ремонт и восстановление озеленения; Установка общедомовых (и квартирных при замене сетей) приборов учета потребления: тепловой энергии на нужды отопления и горячего водоснабжения, потребления холодной воды, электрической энергии, газа; Расходы на изготовление проектно-сметной документации; Капитальный ремонт лифтов (с заменой крупных узлов); Ремонт или восстановление ОДС";14397;30.315247999999997;59.913726000000004;16.0;35;0.014337450774965647;0.1083916083916084;0.8916083916083917;г.Сестрорецк, Токарева ул., 3, А;2021.0;1.0
Петрозаводская ул.;18;0;А;Петроградский;1909;"УК ООО ""Жилкомсервис №2 Петроградского района""";2020;"Ремонт конструкций и замена покрытий крыш; Капитальный ремонт лифтов с полной заменой оборудования: реконструкция лифтов; Расходы на изготовление проектно-сметной документации; Ремонт или замена системы отопления";8314;30.278157;59.920145;4.0;109;0.041576535208579235;0.3671328671328672;0.6328671328671329;Петрозаводская ул., 18, А;2021.0;1.0
Александровская ул.;28;0;А;Петродворцовый;1971;"ООО ""ЖКС г. Ломоносова""";2020;"Ремонт или замена системы холодного водоснабжения; Ремонт конструкций и замена покрытий крыш; Ремонт или замена системы горячего водоснабжения; Ремонт или замена системы отопления";7453;30.250560999999998;59.854034;3.0;47;0.08509658413951307;0.15034965034965034;0.8496503496503497;Александровская ул., 28, А;2018.0;-2.0
г.Ломоносов, Ораниенбаумский пр.;21;2;А;Петродворцовый;1980;"ООО ""ЖКС г. Ломоносова""";2020;"Ремонт конструкций и замена покрытий крыш; Ремонт фасада (Герметизация стыков стеновых панелей)";5942;30.276711;59.98420600000001;1.0;38;0.2002986120513136;0.11888111888111888;0.8811188811188811;г.Ломоносов, Ораниенбаумский пр., 21, 2, А;2033.0;13.0
Турку ул.;22;4;А;Фрунзенский;1966;"ООО ""Управляющая компания ""Гелема""";2020;"Ремонт и восстановление озеленения; Асфальтирование и замощение придомовой территории; Ремонт или замена системы отопления";12684;30.304064;60.066572;3.0;52;0.08091628887882774;0.16783216783216784;0.8321678321678322;Турку ул., 22, 4, А;2021.0;1.0
Большая Зеленина ул.;1/44;0;А;Петроградский;1902;"УК ООО ""Жилкомсервис №2 Петроградского района""";2019;"Капитальный ремонт лифтов с полной заменой оборудования: реконструкция лифтов; Ремонт или замена системы холодного водоснабжения; Ремонт или замена системы канализования и водоотведения; Ремонт или замена системы отопления; Ремонт или замена системы электроснабжения; Расходы на изготовление проектно-сметной документации";15558;30.389566;59.859099;8.0;116;0.017173424896733246;0.3916083916083916;0.6083916083916083;Большая Зеленина ул., 1/44, А;2030.0;11.0
Лени Голикова ул.;23;0;А;Кировский;1967;"Общество с ограниченной ответственностью ""Жилкомсервис № 1 Кировского района""";2020;"Ремонт или замена системы холодного водоснабжения; Ремонт конструкций и замена покрытий крыш; Ремонт или замена системы горячего водоснабжения";1571;30.323629999999998;59.917772;3.0;51;0.08170693878002132;0.16433566433566432;0.8356643356643356;Лени Голикова ул., 23, А;2024.0;4.0
Руставели ул.;4;0;А;Калининский;1968;ЖСК-395;2020;"Ремонт конструкций и замена покрытий крыш; Капитальный ремонт лифтов с полной заменой оборудования: реконструкция лифтов";2177;30.366371;60.038065;2.0;50;0.11384938737238975;0.16083916083916086;0.8391608391608392;Руставели ул., 4, А;2021.0;1.0
Бородачева ул.;8;0;А;Петродворцовый;1980;"ООО ""ЖКС г. Петродворца""";2020;"Ремонт или замена системы электроснабжения; Благоустройство придомовой территории; Ремонт или замена системы отопления";4490;30.263873999999998;59.85055799999999;5.0;38;0.0591187146198181;0.11888111888111888;0.8811188811188811;Бородачева ул., 8, А;2033.0;13.0
Миллионная ул.;17;0;А;Центральный;1777;ООО «Жилкомсервис № 1 Центрального района»;2019;"Ремонт или замена системы холодного водоснабжения; Благоустройство придомовой территории; Ремонт конструкций и замена покрытий крыш; Ремонт фасада (Герметизация стыков стеновых панелей); Ремонт или замена системы отопления; Ремонт и восстановление озеленения; Капитальный ремонт лифтов с полной  заменой оборудования: реконструкция  лифтов";17012;30.244865;59.930583999999996;7.0;241;0.01148311731696258;0.8286713286713286;0.17132867132867136;Миллионная ул., 17, А;2021.0;2.0
Некрасова ул.;17;0;А;Центральный;1850;ООО «Жилкомсервис № 1 Центрального района»;2019;"Ремонт конструкций и замена покрытий крыш; Ремонт или замена системы отопления";11432;30.265103999999997;59.940447;3.0;168;0.04286421957197175;0.5734265734265734;0.42657342657342656;Некрасова ул., 17, А;2021.0;2.0
Маршала Новикова ул.;2;1;А;Приморский;1987;"ООО ""Жилкомсервис №4 Приморского района""";2020;"Ремонт или замена системы горячего водоснабжения; Благоустройство придомовой территории; Ремонт фасада (Герметизация стыков стеновых панелей); Ремонт и восстановление озеленения; Установка общедомовых (и квартирных при замене сетей) приборов учета потребления: тепловой энергии на нужды отопления и горячего водоснабжения, потребления холодной воды, электрической энергии, газа; Расходы на изготовление проектно-сметной документации; Капитальный ремонт лифтов (с заменой крупных узлов); Ремонт или восстановление ОДС";20129;30.349204999999998;59.917592000000006;3.0;31;0.10403282233234766;0.0944055944055944;0.9055944055944056;Маршала Новикова ул., 2, 1, А;2024.0;4.0
Краснопутиловская ул.;83;0;А;Московский;1963;"ООО ""Жилкомсервис № 3 Московского района""";2020;Ремонт конструкций и замена покрытий крыш;9053;30.262445;59.894405000000006;3.0;55;0.07866487982000216;0.17832167832167833;0.8216783216783217;Краснопутиловская ул., 83, А;2027.0;7.0
Сиреневый бул.;8;1;А;Выборгский;1975;"Общество с ограниченной ответственностью  ""Жилкомсервис № 2 Выборгского района""";2019;"Капитальный ремонт лифтов с частичной заменой оборудования: модернизация лифтов; Ремонт или замена системы горячего водоснабжения; Ремонт или замена системы холодного водоснабжения; Ремонт конструкций и замена покрытий крыш; Ремонт или замена системы электроснабжения; Асфальтирование и замощение придомовой территории; Капитальный ремонт лифтов (с заменой крупных узлов)";4044;30.264826;59.888948;5.0;43;0.05544768498249905;0.13636363636363635;0.8636363636363636;Сиреневый бул., 8, 1, А;2021.0;2.0
Волковский пр.;132;0;А;Фрунзенский;1949;"ООО ""Жилкомсервис № 1 Фрунзенского района""";2020;Ремонт фасада (Герметизация стыков стеновых панелей);35;30.357783;59.88553;4.0;69;0.05373852933672199;0.2272727272727273;0.7727272727272727;Волковский пр., 132, А;2027.0;7.0
Косыгина пр.;30;3;А;Красногвардейский;1981;"ООО ""Жилкомсервис  №2 Красногвардейского района""";2020;"Ремонт конструкций и замена покрытий крыш; Капитальный ремонт лифтов с частичной заменой оборудования: модернизация лифтов";20464;30.379756;59.963547999999996;6.0;37;0.04973195744141909;0.1153846153846154;0.8846153846153846;Косыгина пр., 30, 3, А;2024.0;4.0
Курляндская ул.;23;0;Ж;Адмиралтейский;1885;"ООО ""СТИЛЕС""";2020;"Ремонт или замена системы холодного водоснабжения; Ремонт фасадов без утепления; Ремонт конструкций и замена покрытий крыш";586;30.239143;59.941998;3.0;133;0.04905935730079935;0.451048951048951;0.548951048951049;Курляндская ул., 23, Ж;2021.0;1.0
Кораблестроителей ул.;29;5;А;Василеостровский;1975;"ЗАО ""Сити Сервис""";2020;"Ремонт или замена системы горячего водоснабжения; Ремонт или замена системы холодного водоснабжения; Ремонт конструкций и замена покрытий крыш; Расходы на изготовление проектно-сметной документации; Капитальный ремонт лифтов с полной  заменой оборудования: реконструкция  лифтов; Ремонт или восстановление ОДС";18500;30.412005999999998;60.02919300000001;11.0;43;0.021988225443284725;0.13636363636363635;0.8636363636363636;Кораблестроителей ул., 29, 5, А;2018.0;-2.0
Комсомола ул.;45;0;А;Калининский;1899;ООО «Жилкомсервис № 3 Калининского района»;2020;"Ремонт или замена системы горячего водоснабжения; Ремонт или замена системы холодного водоснабжения; Ремонт конструкций и замена покрытий крыш; Ремонт фасада (Герметизация стыков стеновых панелей); Ремонт или замена системы электроснабжения; Ремонт или восстановление внутридомовых инженерных систем; Расходы на изготовление проектно-сметной документации";13617;30.415490999999996;59.96065600000001;9.0;119;0.01400938608430398;0.4020979020979021;0.5979020979020979;Комсомола ул., 45, А;2027.0;7.0
Правды ул.;7;0;А;Колпинский;1952;"ООО ""ЖКС №1 Колпинского района""";2020;"Ремонт или замена системы горячего водоснабжения; Ремонт или замена системы холодного водоснабжения; Ремонт конструкций и замена покрытий крыш; Ремонт фасада (Герметизация стыков стеновых панелей); Ремонт или замена системы отопления; Ремонт или замена системы электроснабжения";20713;30.269776;59.932832999999995;5.0;66;0.043957688341639115;0.2167832167832168;0.7832167832167832;Правды ул., 7, А;2033.0;13.0
Мастеровой пер.;6;0;А;Петродворцовый;1963;"ООО ""ЖКС г. Петродворца""";2020;"Ремонт конструкций и замена покрытий крыш; Расходы на изготовление проектно-сметной документации";19580;30.40628400000001;60.007218;4.0;55;0.06063765703681581;0.17832167832167833;0.8216783216783217;Мастеровой пер., 6, А;2021.0;1.0
Ветеранов пр.;4;0;А;Кировский;1964;"Общество с ограниченной ответственностью ""Жилкомсервис № 1 Кировского района""";2020;"Ремонт или замена системы холодного водоснабжения; Благоустройство придомовой территории; Ремонт конструкций и замена покрытий крыш; Ремонт или замена системы горячего водоснабжения";9016;30.343114;59.98399499999999;3.0;54;0.07939613389961858;0.17482517482517482;0.8251748251748252;Ветеранов пр., 4, А;2033.0;13.0
Среднеохтинский пр.;1;1;А;Красногвардейский;1962;"ООО ""Жилкомсервис  №1 Красногвардейского района""";2020;"Ремонт конструкций и замена покрытий крыш; Ремонт фасадов без утепления";1954;30.313227;59.928027;5.0;56;0.0481440967680054;0.18181818181818185;0.8181818181818181;Среднеохтинский пр., 1, 1, А;2024.0;4.0
Народная ул.;26;0;И;Невский;1961;"ООО ""Жилкомсервис №1 Невского района""";2020;"Ремонт конструкций и замена покрытий крыш; Благоустройство придомовой территории; Ремонт и восстановление озеленения";11990;30.201809;59.83593000000001;5.0;57;0.04768027589842147;0.1853146853146853;0.8146853146853147;Народная ул., 26, И;2024.0;4.0
Чайковского ул.;2/7;0;Р;Центральный;1828;ООО «Жилкомсервис № 1 Центрального района»;2020;"Ремонт или замена системы холодного водоснабжения; Благоустройство придомовой территории; Ремонт или замена системы канализования и водоотведения; Ремонт или замена системы отопления; Ремонт или замена системы электроснабжения; Расходы на изготовление проектно-сметной документации";16480;30.371904999999998;59.93368100000001;4.0;190;0.02957859945333778;0.6503496503496503;0.3496503496503497;Чайковского ул., 2/7, Р;2027.0;7.0
Балтийская ул.;36/9;0;А;Кировский;1880;"Общество с ограниченной ответственностью ""Жилкомсервис № 2 Кировского района""";2019;"Ремонт или замена системы горячего водоснабжения; Ремонт или замена системы холодного водоснабжения; Ремонт конструкций и замена покрытий крыш; Ремонт фасада (Герметизация стыков стеновых панелей); Ремонт или замена системы канализования и водоотведения; Ремонт или замена системы отопления; Расходы на изготовление проектно-сметной документации";6071;30.375714000000002;60.051660999999996;4.0;138;0.036137344206028564;0.4685314685314685;0.5314685314685315;Балтийская ул., 36/9, А;2024.0;5.0
Пограничника Гарькавого ул.;18;1;А;Красносельский;1963;"ООО ""Жилкомсервис № 2 Красносельского района""";2020;"Ремонт или замена системы холодного водоснабжения; Благоустройство придомовой территории; Ремонт конструкций и замена покрытий крыш; Ремонт фасада (Герметизация стыков стеновых панелей); Ремонт или замена системы отопления; Ремонт и восстановление озеленения; Асфальтирование и замощение придомовой территории";2812;30.315868;59.939094999999995;9.0;55;0.024583211470443102;0.17832167832167833;0.8216783216783217;Пограничника Гарькавого ул., 18, 1, А;2021.0;1.0
Тельмана ул.;43;1;А;Невский;1986;ЖСК-1222;2020;"Капитальный ремонт лифтов с частичной заменой оборудования: модернизация лифтов; Ремонт или замена системы горячего водоснабжения; Ремонт или замена системы холодного водоснабжения; Ремонт конструкций и замена покрытий крыш; Ремонт фасада (Герметизация стыков стеновых панелей); Ремонт или восстановление ОДС";19477;30.266648999999997;59.875758999999995;2.0;32;0.14047309218597145;0.0979020979020979;0.902097902097902;Тельмана ул., 43, 1, А;2024.0;4.0
Краснопутиловская ул.;16/13;0;А;Кировский;1959;"Общество с ограниченной ответственностью ""Жилкомсервис № 2 Кировского района""";2020;"Ремонт или замена системы холодного водоснабжения; Ремонт конструкций и замена покрытий крыш; Ремонт или замена системы горячего водоснабжения";13327;30.2844;59.917163;2.0;59;0.10504233029668134;0.19230769230769232;0.8076923076923077;Краснопутиловская ул., 16/13, А;2021.0;1.0
г.Пушкин, Московская ул.;13;0;А;Пушкинский;1958;"ООО ""Жилкомсервис № 2 Пушкинского района""";2020;"Благоустройство придомовой территории; Ремонт и восстановление озеленения";4349;30.352771;60.003997;6.0;60;0.03809306073855128;0.1958041958041958;0.8041958041958042;г.Пушкин, Московская ул., 13, А;2018.0;-2.0
Сикейроса ул.;6;1;А;Выборгский;1978;"Товарищество собственников жилья ""Озерки""";2020;"Ремонт или замена системы горячего водоснабжения; Ремонт или замена системы холодного водоснабжения; Благоустройство придомовой территории; Ремонт конструкций и замена покрытий крыш; Ремонт или замена системы канализования и водоотведения; Ремонт или замена системы отопления; Ремонт или замена системы электроснабжения";10619;30.369515000000003;59.87282800000001;7.0;40;0.040313713412465285;0.1258741258741259;0.8741258741258742;Сикейроса ул., 6, 1, А;2024.0;4.0
Седова ул.;162;0;З;Невский;1962;"ООО ""Жилкомсервис № 2 Невского района""";2020;"Ремонт или замена системы холодного водоснабжения; Благоустройство придомовой территории; Ремонт конструкций и замена покрытий крыш; Ремонт фасада (Герметизация стыков стеновых панелей); АВКР; Ремонт или замена системы электроснабжения; Ремонт и восстановление озеленения";5412;30.305222999999998;59.954187;4.0;56;0.0600671629407924;0.18181818181818185;0.8181818181818181;Седова ул., 162, З;2021.0;1.0
Коломенская ул.;14;0;Б;Центральный;1897;"ТСЖ ""КОЛОМЕНСКАЯ-14""";2019;Ремонт или замена системы отопления;10251;30.448576;59.874128000000006;2.0;121;0.07281803541206452;0.4090909090909091;0.5909090909090908;Коломенская ул., 14, Б;2027.0;8.0
Чернышевского пл.;8;0;А;Московский;1954;"ООО ""Жилкомсервис № 3 Московского района""";2020;Ремонт фасада (Герметизация стыков стеновых панелей);14576;30.321608;60.01521500000001;1.0;64;0.15710730492005867;0.2097902097902098;0.7902097902097902;Чернышевского пл., 8, А;2024.0;4.0
Ленинский пр.;134;2;А;Кировский;1964;"Общество с ограниченной ответственностью ""Жилкомсервис № 1 Кировского района""";2020;"Ремонт или замена системы холодного водоснабжения; Ремонт фасада (Герметизация стыков стеновых панелей); Ремонт конструкций и замена покрытий крыш; Ремонт или замена системы отопления; Ремонт или замена системы электроснабжения";14467;30.381517;59.873072;6.0;54;0.04045297618724078;0.17482517482517482;0.8251748251748252;Ленинский пр., 134, 2, А;2024.0;4.0
Дибуновская ул.;4;0;А;Приморский;1949;"ООО ""Жилкомсервис №2 Приморского района""";2020;"Ремонт фасадов без утепления; Ремонт и восстановление озеленения; Асфальтирование и замощение придомовой территории";18536;30.604587;59.733001;4.0;69;0.05373852933672199;0.2272727272727273;0.7727272727272727;Дибуновская ул., 4, А;2033.0;13.0
Культуры пр.;21;1;А (пар 3-9);Калининский;1974;ЖСК-811;2020;"Капитальный ремонт лифтов с частичной заменой оборудования: модернизация лифтов; Ремонт или замена системы горячего водоснабжения; Ремонт или замена системы холодного водоснабжения; Ремонт конструкций и замена покрытий крыш; Ремонт или замена системы электроснабжения; Капитальный ремонт лифтов (с заменой крупных узлов)";4767;30.500472;59.836893;1.0;44;0.18729166957983545;0.13986013986013987;0.8601398601398601;Культуры пр., 21, 1, А (пар 3-9);2021.0;1.0
Пражская ул.;7;1;А;Фрунзенский;1968;"ООО ""Жилкомсервис № 2 Фрунзенского района""";2020;Капитальный ремонт лифтов с полной  заменой оборудования: реконструкция  лифтов;734;30.410190999999998;59.868487;4.0;50;0.06372113878506197;0.16083916083916086;0.8391608391608392;Пражская ул., 7, 1, А;2024.0;4.0
Московский пр.;73;0;А;Адмиралтейский;1983;"ТСЖ ""Московский пр. д. 73""";2020;"Капитальный ремонт лифтов с полной заменой оборудования: реконструкция лифтов; Ремонт или замена системы отопления; Ремонт или замена системы электроснабжения; Ремонт и восстановление озеленения; Асфальтирование и замощение придомовой территории; Расходы на изготовление проектно-сметной документации";1670;30.279360999999998;59.985278;10.0;35;0.028414915249999426;0.1083916083916084;0.8916083916083917;Московский пр., 73, А;2024.0;4.0
Бассейная ул.;43;0;А;Московский;1953;"ООО ""Жилкомсервис № 2 Московского района""";2020;"Ремонт или замена системы холодного водоснабжения; Ремонт фасада (Герметизация стыков стеновых панелей); Ремонт или замена системы канализования и водоотведения; Ремонт конструкций и замена покрытий крыш";3265;30.263765999999997;59.872886;5.0;65;0.044335567155438176;0.21328671328671328;0.7867132867132867;Бассейная ул., 43, А;2021.0;1.0
Обводного канала наб.;203;0;Ч;Адмиралтейский;1917;"ООО ""СТИЛЕС""";2020;"Ремонт или замена системы горячего водоснабжения; Ремонт или замена системы холодного водоснабжения; Благоустройство придомовой территории; Ремонт или замена системы отопления; Ремонт или замена системы электроснабжения";6189;30.378687;60.038663;6.0;101;0.027758861030826747;0.3391608391608392;0.6608391608391608;Обводного канала наб., 203, Ч;2024.0;4.0
Лицейский пер.;1/4;0;А;Пушкинский;1917;"ТСЖ""Лицейское""";2020;Асфальтирование и замощение придомовой территории;8721;30.334077;59.84599300000001;4.0;101;0.043450899081529284;0.3391608391608392;0.6608391608391608;Лицейский пер., 1/4, А;2021.0;1.0
Крыленко ул.;7;1;У;Невский;1969;"ООО ""Жилкомсервис №1 Невского района""";2020;"Ремонт или замена системы холодного водоснабжения; Ремонт или замена системы электроснабжения; Ремонт конструкций и замена покрытий крыш; Ремонт или замена системы горячего водоснабжения";9774;29.956065999999996;60.092411;6.0;49;0.0427147248734952;0.15734265734265734;0.8426573426573427;Крыленко ул., 7, 1, У;2024.0;4.0
Чайковского ул.;34;0;А;Центральный;1909;ООО «Жилкомсервис № 1 Центрального района»;2019;"Ремонт конструкций и замена покрытий крыш; Капитальный ремонт лифтов (с заменой крупных узлов)";19869;30.254136;60.013627;5.0;109;0.03273524032449443;0.3671328671328672;0.6328671328671329;Чайковского ул., 34, А;2024.0;5.0
г.Сестрорецк, наб.р.Сестры;11;0;А;Курортный;1967;"ООО ""ЖКС Курортного района""";2020;"Ремонт или замена системы горячего водоснабжения; Ремонт или замена системы холодного водоснабжения; Благоустройство придомовой территории; Ремонт конструкций и замена покрытий крыш; Ремонт или замена системы отопления; Расходы на изготовление проектно-сметной документации; Капитальный ремонт лифтов с полной  заменой оборудования: реконструкция  лифтов; Установка общедомовых (и квартирных при замене сетей) приборов учета потребления: тепловой энергии на нужды отопления и горячего водоснабжения, потребления холодной воды, электрической энергии, газа";3618;30.342629;59.959075;8.0;51;0.029941287182270813;0.16433566433566432;0.8356643356643356;г.Сестрорецк, наб.р.Сестры, 11, А;2024.0;4.0
Константина Заслонова ул.;27;0;Б;Центральный;1839;"ООО "" Жилкомсервис №2 Центрального района """;2020;"Ремонт конструкций и замена покрытий крыш; Ремонт или замена системы канализования и водоотведения; Ремонт или замена системы отопления; Ремонт или замена системы электроснабжения; Ремонт или восстановление внутридомовых инженерных систем; Расходы на изготовление проектно-сметной документации";20176;30.337166999999997;59.914191;2.0;179;0.05887197701890266;0.6118881118881119;0.3881118881118881;Константина Заслонова ул., 27, Б;2021.0;1.0
Малая Посадская ул.;4а;0;А;Петроградский;1935;"УК ООО ""Жилкомсервис №1 Петроградского района""";2020;"Ремонт конструкций и замена покрытий крыш; Ремонт фасадов без утепления; Ремонт или замена системы отопления";8819;30.145224;59.844646;4.0;83;0.04855415806029102;0.2762237762237762;0.7237762237762237;Малая Посадская ул., 4а, А;2024.0;4.0
17-я линия, В.О.;42;0;Б;Василеостровский;1902;"ООО "" УК ""МИР""";2020;"Ремонт конструкций и замена покрытий крыш; Ремонт или замена системы электроснабжения; Ремонт и восстановление озеленения; Асфальтирование и замощение придомовой территории; Расходы на изготовление проектно-сметной документации";21136;30.296384000000003;59.95215500000001;4.0;116;0.04008915209086352;0.3916083916083916;0.6083916083916083;17-я линия, В.О., 42, Б;2024.0;4.0
Гривцова пер.;8;0;А;Адмиралтейский;1777;"ООО ""Жилкомсервис №2 Адмиралтейского района""";2020;"Ремонт или замена системы холодного водоснабжения; Ремонт конструкций и замена покрытий крыш; Ремонт фасада (Герметизация стыков стеновых панелей); Ремонт или замена системы отопления; Ремонт или замена системы электроснабжения; Расходы на изготовление проектно-сметной документации; Установка общедомовых (и квартирных при замене сетей) приборов учета потребления: тепловой энергии на нужды отопления и горячего водоснабжения, потребления холодной воды, электрической энергии, газа";8249;30.561279;59.743449;3.0;241;0.034437468729854766;0.8286713286713286;0.17132867132867136;Гривцова пер., 8, А;2024.0;4.0
Октябрьская ул.;51;0;А;Колпинский;1962;"ООО ""ЖКС № 1 Колпинского района""";2020;"Ремонт или замена системы горячего водоснабжения; Ремонт или замена системы холодного водоснабжения; Ремонт фасада (Герметизация стыков стеновых панелей); Ремонт или замена системы канализования и водоотведения; Ремонт или замена системы отопления";15675;30.286215000000002;59.917921;5.0;56;0.0481440967680054;0.18181818181818185;0.8181818181818181;Октябрьская ул., 51, А;2021.0;1.0
Большой Сампсониевский пр.;74;0;А;Выборгский;1956;Общество с ограниченной ответственностью Жилкомсервис № 1 Выборгского района;2020;"Ремонт или замена системы холодного водоснабжения; Ремонт конструкций и замена покрытий крыш";13269;30.363021000000003;59.836825;8.0;62;0.026522543103588783;0.2027972027972028;0.7972027972027972;Большой Сампсониевский пр., 74, А;2021.0;1.0
Московский пр.;201;0;А;Московский;1959;"ООО ""Управляющая организация ""Профсервис""";2020;"Ремонт конструкций и замена покрытий крыш; Ремонт фасада (Герметизация стыков стеновых панелей); Ремонт и восстановление озеленения; Асфальтирование и замощение придомовой территории";1869;30.262903;60.008711;1.0;59;0.1632991124929868;0.19230769230769232;0.8076923076923077;Московский пр., 201, А;2021.0;1.0
Кондратьевский пр.;41;2;А;Калининский;1960;ООО «Жилкомсервис № 3 Калининского района»;2020;"Ремонт или замена системы горячего водоснабжения; Ремонт или замена системы холодного водоснабжения; Ремонт конструкций и замена покрытий крыш; Ремонт фасада (Герметизация стыков стеновых панелей); Ремонт или замена системы отопления; Ремонт или замена системы электроснабжения; Расходы на изготовление проектно-сметной документации";1524;30.383017;60.040564;3.0;58;0.07657697890258129;0.1888111888111888;0.8111888111888113;Кондратьевский пр., 41, 2, А;2027.0;7.0
Серебристый б-р;26;0;А;Приморский;1976;"ООО ""Жилкомсервис №3 Приморского района""";2019;"Ремонт конструкций и замена покрытий крыш; Благоустройство придомовой территории; Капитальный ремонт лифтов с частичной заменой оборудования: модернизация лифтов; Ремонт или восстановление внутридомовых инженерных систем";3832;30.321941;59.855638;4.0;42;0.06965478870375409;0.13286713286713284;0.8671328671328671;Серебристый б-р, 26, А;2024.0;5.0
Тихорецкий пр.;10;1;А;Выборгский;1964;"Жилищно-строительный кооператив ""Университет""";2020;"Ремонт или замена системы холодного водоснабжения; Ремонт конструкций и замена покрытий крыш";8574;30.298333000000003;59.96435;4.0;54;0.06122266030050893;0.17482517482517482;0.8251748251748252;Тихорецкий пр., 10, 1, А;2024.0;4.0
Маяковского ул.;32/11;0;А;Центральный;1850;ООО «Жилкомсервис № 1 Центрального района»;2020;Ремонт конструкций и замена покрытий крыш;17102;30.305761999999998;59.911737;1.0;168;0.09719967323987312;0.5734265734265734;0.42657342657342656;Маяковского ул., 32/11, А;2021.0;1.0
Краснопутиловская ул.;82;0;А;Московский;1960;"ООО ""Жилкомсервис №3 Московского района""";2020;"Ремонт или замена системы холодного водоснабжения; Ремонт или замена системы канализования и водоотведения; Ремонт конструкций и замена покрытий крыш; Ремонт или замена системы горячего водоснабжения";14647;30.423917;59.98674499999999;3.0;58;0.07657697890258129;0.1888111888111888;0.8111888111888113;Краснопутиловская ул., 82, А;2024.0;4.0
пос.Парголово, Первого Мая ул.;99;0;А;Выборгский;1977;"ГУПРЭП ""Парголово""";2020;"Ремонт или замена системы холодного водоснабжения; Ремонт конструкций и замена покрытий крыш; Ремонт или замена системы горячего водоснабжения";8641;30.345504;59.93099;1.0;41;0.19347019366943916;0.12937062937062938;0.8706293706293706;пос.Парголово, Первого Мая ул., 99, А;2021.0;1.0
Дворцовый пр.;51;0;А;Петродворцовый;1938;"ООО ""ЖКС г. Ломоносова""";2020;"Ремонт фасадов без утепления; Ремонт или замена системы холодного водоснабжения; Ремонт конструкций и замена покрытий крыш; Ремонт или замена системы отопления; Установка общедомовых (и квартирных при замене сетей) приборов учета потребления: тепловой энергии на нужды отопления и горячего водоснабжения, потребления холодной воды, электрической энергии, газа";14936;30.356759000000004;59.947951;7.0;80;0.026671499350908102;0.2657342657342657;0.7342657342657343;Дворцовый пр., 51, А;2024.0;4.0
р. Карповки наб.;21;0;А;Петроградский;1897;"УК ООО ""Жилкомсервис №1 Петроградского района""";2019;"АВКР; Капитальный ремонт лифтов (с заменой крупных узлов); Ремонт или замена системы отопления";19808;30.322498;59.846739;4.0;121;0.03910232760886688;0.4090909090909091;0.5909090909090908;р. Карповки наб., 21, А;2021.0;2.0
Дмитровский пер.;8;0;А;Центральный;1903;"ООО "" Жилкомсервис №2 Центрального района """;2020;Ремонт или замена системы отопления;9927;30.32371;59.856283999999995;5.0;115;0.03166626301636462;0.3881118881118881;0.6118881118881119;Дмитровский пер., 8, А;2024.0;4.0
Павловская ул.;78;0;А;Колпинский;1965;"ООО ""ГЦКС""";2020;"Ремонт или замена системы электроснабжения; Благоустройство придомовой территории; Ремонт конструкций и замена покрытий крыш";9555;30.265068;59.85325200000001;1.0;53;0.17176387648008826;0.17132867132867133;0.8286713286713286;Павловская ул., 78, А;2021.0;1.0
Купчинская ул.;24;0;А;Фрунзенский;1975;"ТСЖ ""Купчинская 24""";2020;Ремонт фасадов без утепления;21361;30.101656;59.83495300000001;5.0;43;0.05544768498249905;0.13636363636363635;0.8636363636363636;Купчинская ул., 24, А;2021.0;1.0
19-я линия В.О.;4;0;А;Василеостровский;1883;"ООО ""Жилкомсервис № 2 Василеостровского района""";2020;Ремонт конструкций и замена покрытий крыш;16338;30.086932;59.735641;1.0;135;0.10876118195296892;0.4580419580419579;0.5419580419580421;19-я линия В.О., 4, А;2033.0;13.0
Хошимина ул.;7;1;А;Выборгский;1988;Жилищно-строительный кооператив 1260;2020;Ремонт конструкций и замена покрытий крыш;18296;30.604371;59.741822;2.0;30;0.14468686513591048;0.09090909090909093;0.9090909090909092;Хошимина ул., 7, 1, А;2021.0;1.0
Гражданский пр.;126;1;А;Калининский;1977;ЖСК-936;2020;"Ремонт конструкций и замена покрытий крыш; Капитальный ремонт лифтов с полной  заменой оборудования: реконструкция  лифтов; Ремонт или замена системы канализования и водоотведения";14682;30.315868;59.939094999999995;4.0;41;0.07050533701021787;0.12937062937062938;0.8706293706293706;Гражданский пр., 126, 1, А;2027.0;7.0
2-й Муринский пр.;39;0;А;Выборгский;1967;Жилищно-строительный кооператив №553;2020;"Капитальный ремонт лифтов с полной заменой оборудования: реконструкция лифтов; Ремонт или замена системы холодного водоснабжения; Ремонт конструкций и замена покрытий крыш; АВКР; Капитальный ремонт лифтов с полной  заменой оборудования: реконструкция  лифтов";13144;30.511144;59.836934;3.0;51;0.08170693878002132;0.16433566433566432;0.8356643356643356;2-й Муринский пр., 39, А;2021.0;1.0
Витебская ул.;5/6;0;А;Адмиралтейский;1798;"ООО ""Жилкомсервис №1 Адмиралтейского района""";2020;"Ремонт или замена системы электроснабжения; Ремонт или замена системы канализования и водоотведения";21101;30.40601400000001;59.975027000000004;1.0;220;0.08435802369852316;0.7552447552447552;0.2447552447552448;Витебская ул., 5/6, А;2027.0;7.0
Космонавтов пр.;64;0;А;Московский;1971;"ООО ""Жилкомсервис № 1 Московского района""";2020;"Ремонт конструкций и замена покрытий крыш; Капитальный ремонт лифтов с полной  заменой оборудования: реконструкция  лифтов; Капитальный ремонт лифтов с частичной заменой оборудования: модернизация лифтов";21224;30.328992;59.924113;6.0;47;0.04371037632432336;0.15034965034965034;0.8496503496503497;Космонавтов пр., 64, А;2024.0;4.0
Новгородская ул.;5;0;А;Центральный;1956;"ООО ""Жилкомсервис №3 Центрального района""";2020;Ремонт конструкций и замена покрытий крыш;19124;30.332092;59.957435;4.0;62;0.056917564863203485;0.2027972027972028;0.7972027972027972;Новгородская ул., 5, А;2021.0;1.0
Роменская ул.;4/22;0;Б;Центральный;1916;"ООО "" Жилкомсервис №2 Центрального района """;2020;Ремонт или замена системы отопления;19633;30.554856;59.786395999999996;2.0;102;0.07965636481166542;0.34265734265734266;0.6573426573426573;Роменская ул., 4/22, Б;2030.0;10.0
Стремянная ул.;22/3;0;А;Центральный;1854;"ООО "" Жилкомсервис №2 Центрального района """;2020;Ремонт или замена системы отопления;20865;30.397732;60.015781000000004;9.0;164;0.010507319367105231;0.5594405594405595;0.4405594405594405;Стремянная ул., 22/3, А;2021.0;1.0
15-я линия, В.О.;22;0;А;Василеостровский;1914;"ООО "" УК ВОЗРОЖДЕНИЕ""";2020;"Ремонт конструкций и замена покрытий крыш; Асфальтирование и замощение придомовой территории; Ремонт или замена системы отопления";17621;30.507245;59.97804300000001;4.0;104;0.042724213784205815;0.34965034965034963;0.6503496503496504;15-я линия, В.О., 22, А;2024.0;4.0
Таврическая ул.;27;0;Б;Центральный;1881;ТСЖ «Таврическая 27»;2020;"Ремонт или замена системы холодного водоснабжения; Ремонт или замена системы канализования и водоотведения";14403;30.305789;59.928622;8.0;137;0.015066746368095312;0.465034965034965;0.534965034965035;Таврическая ул., 27, Б;2024.0;4.0
Пограничника Гарькавого ул.;53;1;А;Красносельский;1960;"ООО ""ЖКСервис""";2020;"Ремонт конструкций и замена покрытий крыш; Благоустройство придомовой территории; Ремонт фасада (Герметизация стыков стеновых панелей)";18976;30.264143;59.890478;3.0;58;0.07657697890258129;0.1888111888111888;0.8111888111888113;Пограничника Гарькавого ул., 53, 1, А;2021.0;1.0
г.Пушкин, Леонтьевская ул.;9;0;А;Пушкинский;1917;"ООО ""Жилкомсервис № 2 Пушкинского района""";2020;"Ремонт или замена системы холодного водоснабжения; Благоустройство придомовой территории; Ремонт конструкций и замена покрытий крыш; Ремонт или замена системы канализования и водоотведения; Ремонт фасада (Герметизация стыков стеновых панелей); Ремонт или замена системы электроснабжения";19249;30.396231;59.828763;2.0;101;0.08006565453316855;0.3391608391608392;0.6608391608391608;г.Пушкин, Леонтьевская ул., 9, А;2024.0;4.0
Вокзальная ул.;4;0;А;Петродворцовый;1959;"ООО ""ЖКС поселка Стрельна""";2020;"Ремонт или замена системы холодного водоснабжения; Расходы на изготовление проектно-сметной документации; Установка общедомовых (и квартирных при замене сетей) приборов учета потребления: тепловой энергии на нужды отопления и горячего водоснабжения, потребления холодной воды, электрической энергии, газа";21;30.143751;59.99599300000001;4.0;59;0.05843690453963695;0.19230769230769232;0.8076923076923077;Вокзальная ул., 4, А;2021.0;1.0
Белы Куна ул.;20;2;А;Фрунзенский;1968;"ООО ""Жилкомсервис № 2 Фрунзенского района""";2020;"Ремонт или замена системы электроснабжения; Расходы на изготовление проектно-сметной документации; Ремонт конструкций и замена покрытий крыш";5929;30.320404999999997;59.8873;6.0;50;0.04223760367620725;0.16083916083916086;0.8391608391608392;Белы Куна ул., 20, 2, А;2021.0;1.0
Карбышева ул.;10;0;А;Выборгский;1965;Жилищно-строительный кооператив №92;2020;"Ремонт или замена системы холодного водоснабжения; Ремонт или замена системы электроснабжения";6316;30.313846999999996;59.924856999999996;2.0;53;0.11068550628808232;0.17132867132867133;0.8286713286713286;Карбышева ул., 10, А;2027.0;7.0
Октябрьская наб.;116;2;А;Невский;1959;"ООО ""Жилкомсервис № 1 Невского района""";2020;"Ремонт или замена системы горячего водоснабжения; Ремонт или замена системы холодного водоснабжения; Ремонт конструкций и замена покрытий крыш; Ремонт или замена системы отопления; Ремонт и восстановление озеленения; Асфальтирование и замощение придомовой территории";9794;30.303417;59.84517099999999;6.0;59;0.0384631506437608;0.19230769230769232;0.8076923076923077;Октябрьская наб., 116, 2, А;2021.0;1.0
Сестрорецкая ул.;9;0;А;Приморский;1961;"ООО ""Жилкомсервис  №2 Приморского района""";2020;Ремонт конструкций и замена покрытий крыш;14236;30.487571999999997;59.901368999999995;3.0;57;0.07725603089559703;0.1853146853146853;0.8146853146853147;Сестрорецкая ул., 9, А;2021.0;1.0
Бобыльская дор.;59;0;А;Петродворцовый;1993;"ООО ""УК ""РЭС ТСВ""";2020;"Ремонт фасадов без утепления; Ремонт конструкций и замена покрытий крыш; Ремонт фасада (Герметизация стыков стеновых панелей); Расходы на изготовление проектно-сметной документации; Установка общедомовых (и квартирных при замене сетей) приборов учета потребления: тепловой энергии на нужды отопления и горячего водоснабжения, потребления холодной воды, электрической энергии, газа";14276;30.574574;59.73534100000001;4.0;25;0.08967588931366335;0.07342657342657342;0.9265734265734266;Бобыльская дор., 59, А;2024.0;4.0
Двинская ул.;4;2;А;Кировский;1961;"Общество с ограниченной ответственностью ""Жилкомсервис № 2 Кировского района""";2020;"Ремонт или замена системы холодного водоснабжения; Ремонт или замена системы электроснабжения; Ремонт конструкций и замена покрытий крыш; Ремонт или замена системы отопления";14080;30.245673999999998;59.908962;6.0;57;0.03923006018494276;0.1853146853146853;0.8146853146853147;Двинская ул., 4, 2, А;2021.0;1.0
Большая Посадская ул.;18/7;0;В;Петроградский;1881;"УК ООО ""Жилкомсервис №1 Петроградского района""";2020;"Ремонт или замена системы холодного водоснабжения; Ремонт конструкций и замена покрытий крыш; Ремонт фасада (Герметизация стыков стеновых панелей); Ремонт или замена системы канализования и водоотведения; Ремонт или замена системы отопления; АВКР; Ремонт или замена системы электроснабжения; Расходы на изготовление проектно-сметной документации; Капитальный ремонт лифтов с полной  заменой оборудования: реконструкция  лифтов";5747;30.414036;59.86948100000001;6.0;137;0.022649026500673863;0.465034965034965;0.534965034965035;Большая Посадская ул., 18/7, В;2021.0;1.0
Грибоедова наб.кан.;2 б;0;Б;Центральный;1901;ООО «Жилкомсервис № 1 Центрального района»;2020;Ремонт или замена системы отопления;13664;30.311107;59.957178000000006;5.0;117;0.03132731314748942;0.3951048951048951;0.6048951048951049;Грибоедова наб.кан., 2 б, Б;2024.0;4.0
Шевченко ул.;19;0;А;Василеостровский;1966;ЖСК -295;2020;"Ремонт фасадов без утепления; Ремонт или замена системы горячего водоснабжения; Ремонт или замена системы холодного водоснабжения; Ремонт или замена системы отопления; Расходы на изготовление проектно-сметной документации";9489;30.24933;60.007186;6.0;52;0.04132163617536031;0.16783216783216784;0.8321678321678322;Шевченко ул., 19, А;2021.0;1.0
г.Ломоносов, ул. Красного Флота;30 а;0;А;Петродворцовый;1968;"ООО ""ЖКС г. Ломоносова""";2020;Ремонт конструкций и замена покрытий крыш;7138;30.092053000000003;59.736561;5.0;50;0.05118907663823006;0.16083916083916086;0.8391608391608392;г.Ломоносов, ул. Красного Флота, 30 а, А;2027.0;7.0
Науки пр.;65;0;А;Калининский;1965;ООО «Жилкомсервис № 2 Калининского района»;2020;"Ремонт или замена системы холодного водоснабжения; Ремонт конструкций и замена покрытий крыш; Ремонт или замена системы горячего водоснабжения";19596;30.468985999999997;59.917402;4.0;53;0.061822810134477525;0.17132867132867133;0.8286713286713286;Науки пр., 65, А;2021.0;1.0
Купчинская ул.;20;4;А;Фрунзенский;1974;"ООО ""Жилкомсервис № 3 Фрунзенского района""";2020;"Ремонт или замена системы горячего водоснабжения; Ремонт или замена системы холодного водоснабжения; Ремонт конструкций и замена покрытий крыш; Ремонт или замена системы отопления; Капитальный ремонт лифтов (с заменой крупных узлов)";1179;30.347192;59.918774;8.0;44;0.0326983000542404;0.13986013986013987;0.8601398601398601;Купчинская ул., 20, 4, А;2024.0;4.0
Долгоозерная ул.;10;0;А;Приморский;1989;ЖСК №1282;2020;"Ремонт конструкций и замена покрытий крыш; Благоустройство придомовой территории; Капитальный ремонт лифтов (с заменой крупных узлов)";15353;30.364421999999998;59.94487700000001;6.0;29;0.056418583136514926;0.08741258741258741;0.9125874125874126;Долгоозерная ул., 10, А;2021.0;1.0
11-я Красноармейская ул.;12;0;А;Адмиралтейский;1859;"ООО ""Жилкомсервис №1 Адмиралтейского района""";2020;"Ремонт или замена системы холодного водоснабжения; Ремонт или замена системы электроснабжения; Ремонт конструкций и замена покрытий крыш; Ремонт или замена системы отопления";16936;30.281084999999997;59.984970999999994;3.0;159;0.04426941022537882;0.5419580419580421;0.4580419580419579;11-я Красноармейская ул., 12, А;2021.0;1.0
Васи Алексеева ул.;21;0;А;Кировский;1961;"Общество с ограниченной ответственностью ""Жилкомсервис № 2 Кировского района""";2020;"Ремонт конструкций и замена покрытий крыш; Благоустройство придомовой территории";17034;30.411799;59.956192;4.0;57;0.05951057789729169;0.1853146853146853;0.8146853146853147;Васи Алексеева ул., 21, А;2030.0;10.0
5-я Советская ул.;37;0;Б;Центральный;1905;"ООО ""Жилкомсервис №3 Центрального района""";2020;Ремонт конструкций и замена покрытий крыш;13065;30.242125;59.948884;5.0;113;0.032013656393938536;0.3811188811188811;0.6188811188811191;5-я Советская ул., 37, Б;2024.0;4.0
Казанская ул.;4;0;А;Центральный;1856;"ООО "" Жилкомсервис №2 Центрального района """;2020;"Ремонт или замена системы холодного водоснабжения; Ремонт конструкций и замена покрытий крыш; Ремонт фасада (Герметизация стыков стеновых панелей); Ремонт или замена системы отопления; Ремонт или замена системы электроснабжения; Расходы на изготовление проектно-сметной документации";652;30.365096;59.931062;6.0;162;0.020105844344485244;0.5524475524475524;0.4475524475524476;Казанская ул., 4, А;2021.0;1.0
Уткин пр.;13;3;А;Красногвардейский;1937;"ООО ""Жилкомсервис №2 Красногвардейского района""";2020;Ремонт или восстановление внутридомовых инженерных систем;5730;30.315868;59.939094999999995;1.0;81;0.14024945101845987;0.2692307692307692;0.7307692307692308;Уткин пр., 13, 3, А;2021.0;1.0
Фонтанки реки наб.;5/2;0;А;Центральный;1798;ООО «Жилкомсервис № 1 Центрального района»;2019;"Ремонт или замена системы холодного водоснабжения; Благоустройство придомовой территории; Ремонт и восстановление озеленения; Ремонт или замена системы отопления";14416;30.423136;59.979209;10.0;220;0.005952267321243625;0.7552447552447552;0.2447552447552448;Фонтанки реки наб., 5/2, А;2021.0;2.0
